fid,Lat,Long,countrycode,countryname,state,city,layer,path,Cobalt_mine,Copper_mine,Gold_mine,Zinc_mine,Tin_mine,Mines,id,Aluminium_mine,Asbestos_mine,Bariumbarite_mine,Beryllium_mine,Boronborates_mine,Chromium_mine,Diamond_mine,Iron_mine,Lead_mine,Manganese_mine,Mica_mine,Nickel_mine,Phosphorusphosphates_mine,Platinum_mine,Ree_mine,Silver_mine,Sulfur_mine,Strontium_mine,Tungsten_mine,Uranium_mine
"1",-11.284,27.125,COD,Democratic Republic of the Congo,Haut-Katanga,Kambove,gadm40_COD_2,C:/Users/quent/Downloads/gadm40_COD_shp/gadm40_COD_2.shp,"1","1","0","0","0","2",,"0",,,,,,,,,,,,,,,,,,,
"2",-11.224,27.064,COD,Democratic Republic of the Congo,Haut-Katanga,Kambove,gadm40_COD_2,C:/Users/quent/Downloads/gadm40_COD_shp/gadm40_COD_2.shp,"1","1","0","0","0","2",,"0",,,,,,,,,,,,,,,,,,,
"3",-11.244,27.093,COD,Democratic Republic of the Congo,Haut-Katanga,Kambove,gadm40_COD_2,C:/Users/quent/Downloads/gadm40_COD_shp/gadm40_COD_2.shp,"1","1","0","0","0","2",,"0",,,,,,,,,,,,,,,,,,,
"4",-11.455,27.077,COD,Democratic Republic of the Congo,Haut-Katanga,Kambove,gadm40_COD_2,C:/Users/quent/Downloads/gadm40_COD_shp/gadm40_COD_2.shp,"1","1","0","0","0","2",,"0",,,,,,,,,,,,,,,,,,,
"5",-11.251,27.097,COD,Democratic Republic of the Congo,Haut-Katanga,Kambove,gadm40_COD_2,C:/Users/quent/Downloads/gadm40_COD_shp/gadm40_COD_2.shp,"1","1","0","0","0","2",,"0",,,,,,,,,,,,,,,,,,,
"6",-10.98,25.926,COD,Democratic Republic of the Congo,Haut-Katanga,Kambove,gadm40_COD_2,C:/Users/quent/Downloads/gadm40_COD_shp/gadm40_COD_2.shp,"0","1","0","0","0","1",,"0",,,,,,,,,,,,,,,,,,,
"7",-11.358,27.567,COD,Democratic Republic of the Congo,Haut-Katanga,Kipushi,gadm40_COD_2,C:/Users/quent/Downloads/gadm40_COD_shp/gadm40_COD_2.shp,"1","1","0","0","0","2",,"0",,,,,,,,,,,,,,,,,,,
"8",-11.767,27.238,COD,Democratic Republic of the Congo,Haut-Katanga,Kipushi (ville),gadm40_COD_2,C:/Users/quent/Downloads/gadm40_COD_shp/gadm40_COD_2.shp,"0","0","0","1","0","1",,"0",,,,,,,,,,,,,,,,,,,
"9",-11.766,27.24,COD,Democratic Republic of the Congo,Haut-Katanga,Kipushi (ville),gadm40_COD_2,C:/Users/quent/Downloads/gadm40_COD_shp/gadm40_COD_2.shp,"0","1","0","0","0","1",,"0",,,,,,,,,,,,,,,,,,,
"10",-11.624,27.555,COD,Democratic Republic of the Congo,Haut-Katanga,Lubumbashi,gadm40_COD_2,C:/Users/quent/Downloads/gadm40_COD_shp/gadm40_COD_2.shp,"1","1","0","0","0","2",,"0",,,,,,,,,,,,,,,,,,,
"11",-8.291,29.233,COD,Democratic Republic of the Congo,Haut-Katanga,Pweto,gadm40_COD_2,C:/Users/quent/Downloads/gadm40_COD_shp/gadm40_COD_2.shp,"0","1","0","0","0","1",,"0",,,,,,,,,,,,,,,,,,,
"12",-8.894,28.273,COD,Democratic Republic of the Congo,Haut-Katanga,Pweto,gadm40_COD_2,C:/Users/quent/Downloads/gadm40_COD_shp/gadm40_COD_2.shp,"0","1","0","0","0","1",,"0",,,,,,,,,,,,,,,,,,,
"13",-12.258,27.964,COD,Democratic Republic of the Congo,Haut-Katanga,Sakania,gadm40_COD_2,C:/Users/quent/Downloads/gadm40_COD_shp/gadm40_COD_2.shp,"0","1","0","0","0","1",,"0",,,,,,,,,,,,,,,,,,,
"14",-12.344,28.087,COD,Democratic Republic of the Congo,Haut-Katanga,Sakania,gadm40_COD_2,C:/Users/quent/Downloads/gadm40_COD_shp/gadm40_COD_2.shp,"0","1","0","0","0","1",,"0",,,,,,,,,,,,,,,,,,,
"15",-12.735,28.479,COD,Democratic Republic of the Congo,Haut-Katanga,Sakania,gadm40_COD_2,C:/Users/quent/Downloads/gadm40_COD_shp/gadm40_COD_2.shp,"0","1","0","0","0","1",,"0",,,,,,,,,,,,,,,,,,,
"16",-13.177,28.938,COD,Democratic Republic of the Congo,Haut-Katanga,Sakania,gadm40_COD_2,C:/Users/quent/Downloads/gadm40_COD_shp/gadm40_COD_2.shp,"0","1","0","0","0","1",,"0",,,,,,,,,,,,,,,,,,,
"17",3.117,29.573,COD,Democratic Republic of the Congo,Haut-Uele,Watsa,gadm40_COD_2,C:/Users/quent/Downloads/gadm40_COD_shp/gadm40_COD_2.shp,"0","0","1","0","0","1",,"0",,,,,,,,,,,,,,,,,,,
"18",1.944,30.039,COD,Democratic Republic of the Congo,Ituri,Djugu,gadm40_COD_2,C:/Users/quent/Downloads/gadm40_COD_shp/gadm40_COD_2.shp,"0","0","1","0","0","1",,"0",,,,,,,,,,,,,,,,,,,
"19",1.733,27.868,COD,Democratic Republic of the Congo,Ituri,Mambasa,gadm40_COD_2,C:/Users/quent/Downloads/gadm40_COD_shp/gadm40_COD_2.shp,"0","0","1","0","0","1",,"0",,,,,,,,,,,,,,,,,,,
"20",-10.71,25.447,COD,Democratic Republic of the Congo,Lualaba,Kolwezi,gadm40_COD_2,C:/Users/quent/Downloads/gadm40_COD_shp/gadm40_COD_2.shp,"1","1","0","0","0","2",,"0",,,,,,,,,,,,,,,,,,,
"21",-10.725,26.347,COD,Democratic Republic of the Congo,Lualaba,Lubudi,gadm40_COD_2,C:/Users/quent/Downloads/gadm40_COD_shp/gadm40_COD_2.shp,"1","1","0","0","0","2",,"0",,,,,,,,,,,,,,,,,,,
"22",-10.756,26.305,COD,Democratic Republic of the Congo,Lualaba,Lubudi,gadm40_COD_2,C:/Users/quent/Downloads/gadm40_COD_shp/gadm40_COD_2.shp,"1","1","0","0","0","2",,"0",,,,,,,,,,,,,,,,,,,
"23",-10.636,26.053,COD,Democratic Republic of the Congo,Lualaba,Lubudi,gadm40_COD_2,C:/Users/quent/Downloads/gadm40_COD_shp/gadm40_COD_2.shp,"1","1","0","0","0","2",,"0",,,,,,,,,,,,,,,,,,,
"24",-10.647,26.221,COD,Democratic Republic of the Congo,Lualaba,Lubudi,gadm40_COD_2,C:/Users/quent/Downloads/gadm40_COD_shp/gadm40_COD_2.shp,"1","1","0","0","0","2",,"0",,,,,,,,,,,,,,,,,,,
"25",-10.615,26.296,COD,Democratic Republic of the Congo,Lualaba,Lubudi,gadm40_COD_2,C:/Users/quent/Downloads/gadm40_COD_shp/gadm40_COD_2.shp,"1","1","0","0","0","2",,"0",,,,,,,,,,,,,,,,,,,
"26",-10.584,26.175,COD,Democratic Republic of the Congo,Lualaba,Lubudi,gadm40_COD_2,C:/Users/quent/Downloads/gadm40_COD_shp/gadm40_COD_2.shp,"1","1","0","0","0","2",,"0",,,,,,,,,,,,,,,,,,,
"27",-10.621,26.239,COD,Democratic Republic of the Congo,Lualaba,Lubudi,gadm40_COD_2,C:/Users/quent/Downloads/gadm40_COD_shp/gadm40_COD_2.shp,"1","1","0","0","0","2",,"0",,,,,,,,,,,,,,,,,,,
"28",-10.614,26.207,COD,Democratic Republic of the Congo,Lualaba,Lubudi,gadm40_COD_2,C:/Users/quent/Downloads/gadm40_COD_shp/gadm40_COD_2.shp,"1","1","0","0","0","2",,"0",,,,,,,,,,,,,,,,,,,
"29",-10.598,26.138,COD,Democratic Republic of the Congo,Lualaba,Lubudi,gadm40_COD_2,C:/Users/quent/Downloads/gadm40_COD_shp/gadm40_COD_2.shp,"1","1","0","0","0","2",,"0",,,,,,,,,,,,,,,,,,,
"30",-10.58,26.156,COD,Democratic Republic of the Congo,Lualaba,Lubudi,gadm40_COD_2,C:/Users/quent/Downloads/gadm40_COD_shp/gadm40_COD_2.shp,"1","1","0","0","0","2",,"0",,,,,,,,,,,,,,,,,,,
"31",-10.736,26.4,COD,Democratic Republic of the Congo,Lualaba,Lubudi,gadm40_COD_2,C:/Users/quent/Downloads/gadm40_COD_shp/gadm40_COD_2.shp,"1","1","0","0","0","2",,"0",,,,,,,,,,,,,,,,,,,
"32",-10.754,26.254,COD,Democratic Republic of the Congo,Lualaba,Lubudi,gadm40_COD_2,C:/Users/quent/Downloads/gadm40_COD_shp/gadm40_COD_2.shp,"0","1","0","0","0","1",,"0",,,,,,,,,,,,,,,,,,,
"33",-10.581,26.184,COD,Democratic Republic of the Congo,Lualaba,Lubudi,gadm40_COD_2,C:/Users/quent/Downloads/gadm40_COD_shp/gadm40_COD_2.shp,"1","1","0","0","0","2",,"0",,,,,,,,,,,,,,,,,,,
"34",-10.635,25.933,COD,Democratic Republic of the Congo,Lualaba,Lubudi,gadm40_COD_2,C:/Users/quent/Downloads/gadm40_COD_shp/gadm40_COD_2.shp,"1","1","0","0","0","2",,"0",,,,,,,,,,,,,,,,,,,
"35",-10.665,25.461,COD,Democratic Republic of the Congo,Lualaba,Mutshatsha,gadm40_COD_2,C:/Users/quent/Downloads/gadm40_COD_shp/gadm40_COD_2.shp,"1","1","0","0","0","2",,"0",,,,,,,,,,,,,,,,,,,
"36",-10.69,25.447,COD,Democratic Republic of the Congo,Lualaba,Mutshatsha,gadm40_COD_2,C:/Users/quent/Downloads/gadm40_COD_shp/gadm40_COD_2.shp,"1","1","0","0","0","2",,"0",,,,,,,,,,,,,,,,,,,
"37",-10.746,25.377,COD,Democratic Republic of the Congo,Lualaba,Mutshatsha,gadm40_COD_2,C:/Users/quent/Downloads/gadm40_COD_shp/gadm40_COD_2.shp,"0","1","0","0","0","1",,"0",,,,,,,,,,,,,,,,,,,
"38",-10.738,25.364,COD,Democratic Republic of the Congo,Lualaba,Mutshatsha,gadm40_COD_2,C:/Users/quent/Downloads/gadm40_COD_shp/gadm40_COD_2.shp,"0","1","0","0","0","1",,"0",,,,,,,,,,,,,,,,,,,
"39",-10.618,25.749,COD,Democratic Republic of the Congo,Lualaba,Mutshatsha,gadm40_COD_2,C:/Users/quent/Downloads/gadm40_COD_shp/gadm40_COD_2.shp,"1","1","0","0","0","2",,"0",,,,,,,,,,,,,,,,,,,
"40",-10.665,25.895,COD,Democratic Republic of the Congo,Lualaba,Mutshatsha,gadm40_COD_2,C:/Users/quent/Downloads/gadm40_COD_shp/gadm40_COD_2.shp,"1","1","0","0","0","2",,"0",,,,,,,,,,,,,,,,,,,
"41",-10.669,25.908,COD,Democratic Republic of the Congo,Lualaba,Mutshatsha,gadm40_COD_2,C:/Users/quent/Downloads/gadm40_COD_shp/gadm40_COD_2.shp,"1","1","0","0","0","2",,"0",,,,,,,,,,,,,,,,,,,
"42",-10.704,25.463,COD,Democratic Republic of the Congo,Lualaba,Mutshatsha,gadm40_COD_2,C:/Users/quent/Downloads/gadm40_COD_shp/gadm40_COD_2.shp,"1","1","0","0","0","2",,"0",,,,,,,,,,,,,,,,,,,
"43",-10.74,25.397,COD,Democratic Republic of the Congo,Lualaba,Mutshatsha,gadm40_COD_2,C:/Users/quent/Downloads/gadm40_COD_shp/gadm40_COD_2.shp,"1","1","0","0","0","2",,"0",,,,,,,,,,,,,,,,,,,
"44",-10.799,25.691,COD,Democratic Republic of the Congo,Lualaba,Mutshatsha,gadm40_COD_2,C:/Users/quent/Downloads/gadm40_COD_shp/gadm40_COD_2.shp,"1","1","0","0","0","2",,"0",,,,,,,,,,,,,,,,,,,
"45",-10.689,25.458,COD,Democratic Republic of the Congo,Lualaba,Mutshatsha,gadm40_COD_2,C:/Users/quent/Downloads/gadm40_COD_shp/gadm40_COD_2.shp,"1","1","0","0","0","2",,"0",,,,,,,,,,,,,,,,,,,
"46",-10.74,25.835,COD,Democratic Republic of the Congo,Lualaba,Mutshatsha,gadm40_COD_2,C:/Users/quent/Downloads/gadm40_COD_shp/gadm40_COD_2.shp,"1","1","0","0","0","2",,"0",,,,,,,,,,,,,,,,,,,
"47",-10.793,25.808,COD,Democratic Republic of the Congo,Lualaba,Mutshatsha,gadm40_COD_2,C:/Users/quent/Downloads/gadm40_COD_shp/gadm40_COD_2.shp,"1","1","0","0","0","2",,"0",,,,,,,,,,,,,,,,,,,
"48",-10.786,25.769,COD,Democratic Republic of the Congo,Lualaba,Mutshatsha,gadm40_COD_2,C:/Users/quent/Downloads/gadm40_COD_shp/gadm40_COD_2.shp,"1","1","0","0","0","2",,"0",,,,,,,,,,,,,,,,,,,
"49",-10.771,25.352,COD,Democratic Republic of the Congo,Lualaba,Mutshatsha,gadm40_COD_2,C:/Users/quent/Downloads/gadm40_COD_shp/gadm40_COD_2.shp,"1","1","0","0","0","2",,"0",,,,,,,,,,,,,,,,,,,
"50",-10.775,25.256,COD,Democratic Republic of the Congo,Lualaba,Mutshatsha,gadm40_COD_2,C:/Users/quent/Downloads/gadm40_COD_shp/gadm40_COD_2.shp,"0","1","0","0","0","1",,"0",,,,,,,,,,,,,,,,,,,
"51",-10.722,25.402,COD,Democratic Republic of the Congo,Lualaba,Mutshatsha,gadm40_COD_2,C:/Users/quent/Downloads/gadm40_COD_shp/gadm40_COD_2.shp,"1","1","0","0","0","2",,"0",,,,,,,,,,,,,,,,,,,
"52",-10.715,25.421,COD,Democratic Republic of the Congo,Lualaba,Mutshatsha,gadm40_COD_2,C:/Users/quent/Downloads/gadm40_COD_shp/gadm40_COD_2.shp,"1","1","0","0","0","2",,"0",,,,,,,,,,,,,,,,,,,
"53",-4.036,27.557,COD,Democratic Republic of the Congo,Maniema,Kabambare,gadm40_COD_2,C:/Users/quent/Downloads/gadm40_COD_shp/gadm40_COD_2.shp,"0","1","1","0","0","2",,"0",,,,,,,,,,,,,,,,,,,
"54",-1.055,27.65,COD,Democratic Republic of the Congo,Nord-Kivu,Walikale,gadm40_COD_2,C:/Users/quent/Downloads/gadm40_COD_shp/gadm40_COD_2.shp,"0","0","0","0","1","1",,"0",,,,,,,,,,,,,,,,,,,
"55",-2.831,28.746,COD,Democratic Republic of the Congo,Sud-Kivu,Mwenga,gadm40_COD_2,C:/Users/quent/Downloads/gadm40_COD_shp/gadm40_COD_2.shp,"0","0","1","0","0","1",,"0",,,,,,,,,,,,,,,,,,,
"56",-3.05,28.167,COD,Democratic Republic of the Congo,Sud-Kivu,Mwenga,gadm40_COD_2,C:/Users/quent/Downloads/gadm40_COD_shp/gadm40_COD_2.shp,"0","0","1","0","0","1",,"0",,,,,,,,,,,,,,,,,,,
"57",11.766,27.24,SDN,Sudan,West Kurdufan,Ghebeish,gadm40_SDN_2,C:/Users/quent/Downloads/gadm40_SDN_shp/gadm40_SDN_2.shp,"0","0","0","1","0","1",,"0",,,,,,,,,,,,,,,,,,,
"58",-11.475123,16.964963,AGO,Angola,Bié,Nharea,Mines_Africa_Districts_geocoded,,"0","0","0","0","0","0","1","0","0","0","0","0","0","0","0","0","0","0","0","0","0","0","0","0","0","0","0"
"59",-15.0158359,13.3793091,AGO,Angola,Huíla,Humpata,Mines_Africa_Districts_geocoded,,"0","0","0","0","0","0","2","0","0","0","0","0","0","0","0","0","0","0","0","0","0","0","0","0","0","0","0"
"60",-17.6097686,18.6223286,AGO,Angola,Cuando Cubango,Cuangar,Mines_Africa_Districts_geocoded,,"0","0","0","0","0","0","3","0","0","0","0","0","0","0","0","0","0","0","0","0","0","0","0","0","0","0","0"
"61",-4.7621662,12.5388765,AGO,Angola,Cabinda,Buco Zau,Mines_Africa_Districts_geocoded,,"0","0","0","0","0","0","4","0","0","0","0","0","0","0","0","0","0","0","0","0","0","0","0","0","0","0","0"
"62",-9.1472811,18.0431019,AGO,Angola,Lunda Norte,Cuango,Mines_Africa_Districts_geocoded,,"0","0","0","0","0","0","5","0","0","0","0","0","0","0","0","0","0","0","0","0","0","0","0","0","0","0","0"
"63",-13.7871059,14.6887752,AGO,Angola,Huíla,Caluquembe,Mines_Africa_Districts_geocoded,,"0","0","0","0","0","0","6","0","0","0","0","0","0","0","0","0","0","0","0","0","0","0","0","0","0","0","0"
"64",-16.7441648,14.9715753141861,AGO,Angola,Cunene,Ombadja,Mines_Africa_Districts_geocoded,,"0","0","0","0","0","0","7","0","0","0","0","0","0","0","0","0","0","0","0","0","0","0","0","0","0","0","0"
"65",-12.354261,14.772315,AGO,Angola,Benguela,Balombo,Mines_Africa_Districts_geocoded,,"0","0","0","0","0","0","8","0","0","0","0","0","0","0","0","0","0","0","0","0","0","0","0","0","0","0","0"
"66",-14.1329237,14.9129383,AGO,Angola,Huíla,Chicomba,Mines_Africa_Districts_geocoded,,"0","0","0","0","0","0","9","0","0","0","0","0","0","0","0","0","0","0","0","0","0","0","0","0","0","0","0"
"67",-15.7248216,12.9488622,AGO,Angola,Namibe,Virei,Mines_Africa_Districts_geocoded,,"0","0","0","0","0","0","10","0","0","0","0","0","0","0","0","0","0","0","0","0","0","0","0","0","0","0","0"
"68",-10.641448,14.335822,AGO,Angola,Cuanza Sul,Quilenda,Mines_Africa_Districts_geocoded,,"0","0","0","0","0","0","11","0","0","0","0","0","0","0","0","0","0","0","0","0","0","0","0","0","0","0","0"
"69",-11.8373101,16.2209165,AGO,Angola,Huambo,Mungo,Mines_Africa_Districts_geocoded,,"0","0","0","0","0","0","12","0","0","0","0","0","0","0","0","0","0","0","0","0","0","0","0","0","0","0","0"
"70",-12.142243,17.2856051,AGO,Angola,Bié,Catabola,Mines_Africa_Districts_geocoded,,"0","0","0","0","0","0","13","0","0","0","0","0","0","0","0","0","0","0","0","0","0","0","0","0","0","0","0"
"71",-7.3096446,15.9977989,AGO,Angola,Uíge,Sanza Pombo,Mines_Africa_Districts_geocoded,,"0","0","0","0","0","0","14","0","0","0","0","0","0","0","0","0","0","0","0","0","0","0","0","0","0","0","0"
"72",-6.1219639,14.6217928,AGO,Angola,Zaire,Cuimba,Mines_Africa_Districts_geocoded,,"0","0","0","0","0","0","15","0","0","0","0","0","0","0","0","0","0","0","0","0","0","0","0","0","0","0","0"
"73",-7.4428476,14.6465135,AGO,Angola,Uíge,Ambuila,Mines_Africa_Districts_geocoded,,"0","0","0","0","0","0","16","0","0","0","0","0","0","0","0","0","0","0","0","0","0","0","0","0","0","0","0"
"74",-10.0824806,17.5568116,AGO,Angola,Malanje,Cambundi-Catembo,Mines_Africa_Districts_geocoded,,"0","0","0","0","0","0","18","0","0","0","0","0","0","0","0","0","0","0","0","0","0","0","0","0","0","0","0"
"75",-13.5784594,13.9408058,AGO,Angola,Benguela,Chongoroi,Mines_Africa_Districts_geocoded,,"0","0","0","0","0","0","19","0","0","0","0","0","0","0","0","0","0","0","0","0","0","0","0","0","0","0","0"
"76",-11.4872178,16.6959053,AGO,Angola,Bié,Andulo,Mines_Africa_Districts_geocoded,,"0","0","0","0","0","0","21","0","0","0","0","0","0","0","0","0","0","0","0","0","0","0","0","0","0","0","0"
"77",-10.85147,14.379927,AGO,Angola,Cuanza Sul,Amboim,Mines_Africa_Districts_geocoded,,"0","0","0","0","0","0","24","0","0","0","0","0","0","0","0","0","0","0","0","0","0","0","0","0","0","0","0"
"78",-13.033333,14.25,AGO,Angola,Benguela,Cubal,Mines_Africa_Districts_geocoded,,"0","0","0","0","0","0","25","0","0","0","0","0","0","0","0","0","0","0","0","0","0","0","0","0","0","0","0"
"79",-5.5576435,12.1919468,AGO,Angola,Cabinda,Cabinda,Mines_Africa_Districts_geocoded,,"0","0","0","0","0","0","27","0","0","0","0","0","0","0","0","0","0","0","0","0","0","0","0","0","0","0","0"
"80",-14.6610713,17.6820336,AGO,Angola,Cuando Cubango,Menongue,Mines_Africa_Districts_geocoded,,"0","0","0","0","0","0","28","0","0","0","0","0","0","0","0","0","0","0","0","0","0","0","0","0","0","0","0"
"81",-10.1436862,19.2660075,AGO,Angola,Lunda Sul,Cacolo,Mines_Africa_Districts_geocoded,,"0","0","0","0","0","0","29","0","0","0","0","0","0","0","0","0","0","0","0","0","0","0","0","0","0","0","0"
"82",-8.4714533,13.3686966,AGO,Angola,Bengo,Dande,Mines_Africa_Districts_geocoded,,"0","0","0","0","0","0","30","0","0","0","0","0","0","0","0","0","0","0","0","0","0","0","0","0","0","0","0"
"83",-12.7765392,15.7320468,AGO,Angola,Huambo,Huambo,Mines_Africa_Districts_geocoded,,"0","0","0","0","0","0","31","0","0","0","0","0","0","0","0","0","0","0","0","0","0","0","0","0","0","0","0"
"84",-11.8481234,20.0417251,AGO,Angola,Moxico,Moxico,Mines_Africa_Districts_geocoded,,"0","0","0","0","0","0","32","0","0","0","0","0","0","0","0","0","0","0","0","0","0","0","0","0","0","0","0"
"85",-17.8878973,19.7702528,AGO,Angola,Cuando Cubango,Calai,Mines_Africa_Districts_geocoded,,"0","0","0","0","0","0","33","0","0","0","0","0","0","0","0","0","0","0","0","0","0","0","0","0","0","0","0"
"86",-11.9015813,22.9149722,AGO,Angola,Moxico,Alto Zambeze,Mines_Africa_Districts_geocoded,,"0","0","0","0","0","0","34","0","0","0","0","0","0","0","0","0","0","0","0","0","0","0","0","0","0","0","0"
"87",-7.9416281,15.0415751,AGO,Angola,Uíge,Quitexe,Mines_Africa_Districts_geocoded,,"0","0","0","0","0","0","35","0","0","0","0","0","0","0","0","0","0","0","0","0","0","0","0","0","0","0","0"
"88",-11.108618,14.33621,AGO,Angola,Cuanza Sul,Conda,Mines_Africa_Districts_geocoded,,"0","0","0","0","0","0","36","0","0","0","0","0","0","0","0","0","0","0","0","0","0","0","0","0","0","0","0"
"89",-11.0464661,14.6965743,AGO,Angola,Cuanza Sul,Ebo,Mines_Africa_Districts_geocoded,,"0","0","0","0","0","0","38","0","0","0","0","0","0","0","0","0","0","0","0","0","0","0","0","0","0","0","0"
"90",-13.7388452,15.0619677,AGO,Angola,Huíla,Caconda,Mines_Africa_Districts_geocoded,,"0","0","0","0","0","0","39","0","0","0","0","0","0","0","0","0","0","0","0","0","0","0","0","0","0","0","0"
"91",-15.1853322,13.689893,AGO,Angola,Huíla,Chibia,Mines_Africa_Districts_geocoded,,"0","0","0","0","0","0","40","0","0","0","0","0","0","0","0","0","0","0","0","0","0","0","0","0","0","0","0"
"92",-9.5483991,16.3475335,AGO,Angola,Malanje,Malanje,Mines_Africa_Districts_geocoded,,"0","0","0","0","0","0","41","0","0","0","0","0","0","0","0","0","0","0","0","0","0","0","0","0","0","0","0"
"93",-7.34469,20.820081,AGO,Angola,Lunda Norte,Chitato,Mines_Africa_Districts_geocoded,,"0","0","0","0","0","0","42","0","0","0","0","0","0","0","0","0","0","0","0","0","0","0","0","0","0","0","0"
"94",-9.9997586,14.8940355943795,AGO,Angola,Cuanza Sul,Libolo,Mines_Africa_Districts_geocoded,,"0","0","0","0","0","0","45","0","0","0","0","0","0","0","0","0","0","0","0","0","0","0","0","0","0","0","0"
"95",-10.7279102,13.7578988,AGO,Angola,Cuanza Sul,Porto Amboim,Mines_Africa_Districts_geocoded,,"0","1","0","0","0","1","46","0","0","0","0","0","0","0","0","0","0","0","0","0","0","0","0","0","0","0","0"
"96",-8.8282383,13.4337544170334,AGO,Angola,Luanda,Cacuaco,Mines_Africa_Districts_geocoded,,"0","0","0","0","0","0","47","0","0","0","0","0","0","0","0","0","0","0","0","0","0","0","0","0","0","0","0"
"97",-8.82357525,13.308092850528,AGO,Angola,Luanda,Cazenga,Mines_Africa_Districts_geocoded,,"0","0","0","0","0","0","48","0","0","0","0","0","0","0","0","0","0","0","0","0","0","0","0","0","0","0","0"
"98",-14.0759971,14.074599,AGO,Angola,Huíla,Quilengues,Mines_Africa_Districts_geocoded,,"0","0","0","0","0","0","49","0","0","0","0","0","0","0","0","0","0","0","0","0","0","0","0","0","0","0","0"
"99",-9.6589303,20.3981118,AGO,Angola,Lunda Sul,Saurimo,Mines_Africa_Districts_geocoded,,"0","0","0","0","0","0","51","0","0","0","0","0","0","0","0","0","0","0","0","0","0","0","0","0","0","0","0"
"100",-12.5588531,16.3383776,AGO,Angola,Bié,Chinguar,Mines_Africa_Districts_geocoded,,"0","0","0","0","0","0","52","0","0","0","0","0","0","0","0","0","0","0","0","0","0","0","0","0","0","0","0"
"101",-12.8219579,14.9312921,AGO,Angola,Huambo,Tchindjenje,Mines_Africa_Districts_geocoded,,"0","0","0","0","0","0","53","0","0","0","0","0","0","0","0","0","0","0","0","0","0","0","0","0","0","0","0"
"102",-8.6953879,16.519571,AGO,Angola,Malanje,Caombo,Mines_Africa_Districts_geocoded,,"0","0","0","0","0","0","54","0","0","0","0","0","0","0","0","0","0","0","0","0","0","0","0","0","0","0","0"
"103",-14.9195617,13.4897509,AGO,Angola,Huíla,Lubango,Mines_Africa_Districts_geocoded,,"0","0","0","0","0","0","55","0","0","0","0","0","0","0","0","0","0","0","0","0","0","0","0","0","0","0","0"
"104",-11.2019365,13.8396845,AGO,Angola,Cuanza Sul,Sumbe,Mines_Africa_Districts_geocoded,,"0","1","0","0","0","1","56","0","0","0","0","0","0","0","0","0","0","0","0","0","0","0","0","0","0","0","0"
"105",-12.5790048,13.4037117,AGO,Angola,Benguela,Benguela,Mines_Africa_Districts_geocoded,,"0","0","0","0","0","0","57","0","0","0","0","0","0","0","0","0","0","0","0","0","0","0","0","0","0","0","0"
"106",-12.237615,15.3152177,AGO,Angola,Huambo,Londuimbale,Mines_Africa_Districts_geocoded,,"0","0","0","0","0","0","58","0","0","0","0","0","0","0","0","0","0","0","0","0","0","0","0","0","0","0","0"
"107",-8.7288046,15.169027,AGO,Angola,Cuanza Norte,Banga,Mines_Africa_Districts_geocoded,,"0","0","0","0","0","0","59","0","0","0","0","0","0","0","0","0","0","0","0","0","0","0","0","0","0","0","0"
"108",-9.4194492,18.433128,AGO,Angola,Lunda Norte,Capenda,Mines_Africa_Districts_geocoded,,"0","0","0","0","0","0","60","0","0","0","0","0","0","0","0","0","0","0","0","0","0","0","0","0","0","0","0"
"109",-13.7016602,19.8625463,AGO,Angola,Moxico,Luchazes,Mines_Africa_Districts_geocoded,,"0","0","0","0","0","0","61","0","0","0","0","0","0","0","0","0","0","0","0","0","0","0","0","0","0","0","0"
"110",-12.8642905,15.0635644,AGO,Angola,Huambo,Ukuma,Mines_Africa_Districts_geocoded,,"0","0","0","0","0","0","62","0","0","0","0","0","0","0","0","0","0","0","0","0","0","0","0","0","0","0","0"
"111",-11.5599107,20.7779668,AGO,Angola,Moxico,Cameia,Mines_Africa_Districts_geocoded,,"0","0","0","0","0","0","63","0","0","0","0","0","0","0","0","0","0","0","0","0","0","0","0","0","0","0","0"
"112",-7.743263,21.255401,AGO,Angola,Lunda Norte,Cambulo,Mines_Africa_Districts_geocoded,,"0","0","0","0","0","0","65","0","0","0","0","0","0","0","0","0","0","0","0","0","0","0","0","0","0","0","0"
"113",-15.7943989,20.3656709,AGO,Angola,Cuando Cubango,Mavinga,Mines_Africa_Districts_geocoded,,"0","0","0","0","0","0","68","0","0","0","0","0","0","0","0","0","0","0","0","0","0","0","0","0","0","0","0"
"114",-12.5669175,16.227044,AGO,Angola,Huambo,Catchiungo,Mines_Africa_Districts_geocoded,,"0","0","0","0","0","0","69","0","0","0","0","0","0","0","0","0","0","0","0","0","0","0","0","0","0","0","0"
"115",-16.2827917,14.3025097,AGO,Angola,Cunene,Cahama,Mines_Africa_Districts_geocoded,,"0","0","0","0","0","0","70","0","0","0","0","0","0","0","0","0","0","0","0","0","0","0","0","0","0","0","0"
"116",-14.6906259,16.0300973,AGO,Angola,Huíla,Jamba,Mines_Africa_Districts_geocoded,,"0","0","0","0","0","2","71","0","0","0","0","0","0","0","2","0","0","0","0","0","0","0","0","0","0","0","0"
"117",-7.6927721,15.6527082,AGO,Angola,Uíge,Puri,Mines_Africa_Districts_geocoded,,"0","0","0","0","0","0","72","0","0","0","0","0","0","0","0","0","0","0","0","0","0","0","0","0","0","0","0"
"118",-8.90137245,13.2364257875155,AGO,Angola,Luanda,Kilamba Kiaxi,Mines_Africa_Districts_geocoded,,"0","0","0","0","0","0","73","0","0","0","0","0","0","0","0","0","0","0","0","0","0","0","0","0","0","0","0"
"119",-7.7634901,15.2683054,AGO,Angola,Uíge,Negage,Mines_Africa_Districts_geocoded,,"0","0","0","0","0","0","74","0","0","0","0","0","0","0","0","0","0","0","0","0","0","0","0","0","0","0","0"
"120",-12.9070386,15.248612,AGO,Angola,Huambo,Longonjo,Mines_Africa_Districts_geocoded,,"0","0","0","0","0","0","75","0","0","0","0","0","0","0","0","0","0","0","0","0","0","0","0","0","0","0","0"
"121",-12.6827618,15.5055345,AGO,Angola,Huambo,Ekunha,Mines_Africa_Districts_geocoded,,"0","0","0","0","0","0","76","0","0","0","0","0","0","0","0","0","0","0","0","0","0","0","0","0","0","0","0"
"122",-8.8252637,13.2661023,AGO,Angola,Luanda,Rangel,Mines_Africa_Districts_geocoded,,"0","0","0","0","0","0","77","0","0","0","0","0","0","0","0","0","0","0","0","0","0","0","0","0","0","0","0"
"123",-14.7608767,13.3536242,AGO,Angola,Namibe,Bibala,Mines_Africa_Districts_geocoded,,"0","0","0","0","0","0","78","0","0","0","0","0","0","0","0","0","0","0","0","0","0","0","0","0","0","0","0"
"124",-7.2315951,12.8685053,AGO,Angola,Zaire,N'Zeto,Mines_Africa_Districts_geocoded,,"0","0","0","0","0","1","79","0","0","0","0","0","0","0","0","0","0","0","0","1","0","0","0","0","0","0","0"
"125",-12.3506867,13.5464318,AGO,Angola,Benguela,Lobito,Mines_Africa_Districts_geocoded,,"0","0","0","0","0","0","80","0","0","0","0","0","0","0","0","0","0","0","0","0","0","0","0","0","0","0","0"
"126",-14.4660431,16.2911732,AGO,Angola,Huíla,Kuvango,Mines_Africa_Districts_geocoded,,"0","0","0","0","0","0","81","0","0","0","0","0","0","0","0","0","0","0","0","0","0","0","0","0","0","0","0"
"127",-6.0608124,15.1075043,AGO,Angola,Uíge,Maquela do Zombo,Mines_Africa_Districts_geocoded,,"0","0","0","0","0","0","82","0","0","0","0","0","0","0","0","0","0","0","0","0","0","0","0","0","0","0","0"
"128",-7.2618613,15.0775981,AGO,Angola,Uíge,Mucaba,Mines_Africa_Districts_geocoded,,"0","0","0","0","0","0","83","0","0","0","0","0","0","0","0","0","0","0","0","0","0","0","0","0","0","0","0"
"129",-12.2338631,16.7817695,AGO,Angola,Bié,Cunhinga,Mines_Africa_Districts_geocoded,,"0","0","0","0","0","0","85","0","0","0","0","0","0","0","0","0","0","0","0","0","0","0","0","0","0","0","0"
"130",-15.1630289,19.1727434,AGO,Angola,Cuando Cubango,Cuito Cuanavale,Mines_Africa_Districts_geocoded,,"0","0","0","0","0","0","86","0","0","0","0","0","0","0","0","0","0","0","0","0","0","0","0","0","0","0","0"
"131",-8.3610995,17.0238756,AGO,Angola,Malanje,Marimba,Mines_Africa_Districts_geocoded,,"0","0","0","0","0","0","87","0","0","0","0","0","0","0","0","0","0","0","0","0","0","0","0","0","0","0","0"
"132",-13.016667,14.633333,AGO,Angola,Benguela,Ganda,Mines_Africa_Districts_geocoded,,"0","0","0","0","0","0","88","0","0","0","0","0","0","0","0","0","0","0","0","0","0","0","0","0","0","0","0"
"133",-12.1921556,15.8609227,AGO,Angola,Huambo,Bailundo,Mines_Africa_Districts_geocoded,,"0","0","0","0","0","0","89","0","0","0","0","0","0","0","0","0","0","0","0","0","0","0","0","0","0","0","0"
"134",-13.8178352,15.7878658,AGO,Angola,Huíla,Chipindo,Mines_Africa_Districts_geocoded,,"0","0","0","0","0","0","90","0","0","0","0","0","0","0","0","0","0","0","0","0","0","0","0","0","0","0","0"
"135",-9.7460516,14.4866722,AGO,Angola,Cuanza Norte,Cambambe,Mines_Africa_Districts_geocoded,,"0","0","0","0","0","3","91","1","0","0","0","0","0","0","2","0","0","0","0","0","0","0","0","0","0","0","0"
"136",-11.4065682,14.3006319,AGO,Angola,Cuanza Sul,Seles,Mines_Africa_Districts_geocoded,,"0","0","0","0","0","0","92","0","0","0","0","0","0","0","0","0","0","0","0","0","0","0","0","0","0","0","0"
"137",-10.7025518,22.2275381,AGO,Angola,Moxico,Luau,Mines_Africa_Districts_geocoded,,"0","0","0","0","0","0","93","0","0","0","0","0","0","0","0","0","0","0","0","0","0","0","0","0","0","0","0"
"138",-9.1386587,14.7734467,AGO,Angola,Cuanza Norte,Golungo Alto,Mines_Africa_Districts_geocoded,,"0","0","0","0","0","0","94","0","0","0","0","0","0","0","0","0","0","0","0","0","0","0","0","0","0","0","0"
"139",-16.2850671,12.7323478,AGO,Angola,Cunene,Curoca,Mines_Africa_Districts_geocoded,,"0","0","0","0","0","0","95","0","0","0","0","0","0","0","0","0","0","0","0","0","0","0","0","0","0","0","0"
"140",-11.6542475,20.4442454,AGO,Angola,Moxico,Léua,Mines_Africa_Districts_geocoded,,"0","0","0","0","0","0","96","0","0","0","0","0","0","0","0","0","0","0","0","0","0","0","0","0","0","0","0"
"141",-15.7330735,13.8901485,AGO,Angola,Huíla,Gambos,Mines_Africa_Districts_geocoded,,"0","0","0","0","0","1","97","0","0","0","0","0","0","0","0","0","0","0","0","0","0","0","0","0","0","0","0"
"142",-8.80020825,13.2553580314144,AGO,Angola,Luanda,Ingombota,Mines_Africa_Districts_geocoded,,"0","0","0","0","0","0","98","0","0","0","0","0","0","0","0","0","0","0","0","0","0","0","0","0","0","0","0"
"143",-8.8387912,13.212125,AGO,Angola,Luanda,Samba,Mines_Africa_Districts_geocoded,,"0","0","0","0","0","0","99","0","0","0","0","0","0","0","0","0","0","0","0","0","0","0","0","0","0","0","0"
"144",-15.7857055,15.7375932,AGO,Angola,Cunene,Cuvelai,Mines_Africa_Districts_geocoded,,"0","0","0","0","0","0","100","0","0","0","0","0","0","0","0","0","0","0","0","0","0","0","0","0","0","0","0"
"145",-9.2656993,17.0728653,AGO,Angola,Malanje,Quela,Mines_Africa_Districts_geocoded,,"0","0","0","0","0","0","101","0","0","0","0","0","0","0","0","0","0","0","0","0","0","0","0","0","0","0","0"
"146",-10.592362,21.318045,AGO,Angola,Lunda Sul,Muconda,Mines_Africa_Districts_geocoded,,"0","0","0","0","0","0","102","0","0","0","0","0","0","0","0","0","0","0","0","0","0","0","0","0","0","0","0"
"147",-9.7896356,16.4288135,AGO,Angola,Malanje,Cangandala,Mines_Africa_Districts_geocoded,,"0","0","0","0","0","0","103","0","0","0","0","0","0","0","0","0","0","0","0","0","0","0","0","0","0","0","0"
"148",-10.7348652,17.7184084,AGO,Angola,Malanje,Luquembo,Mines_Africa_Districts_geocoded,,"0","0","0","0","0","0","104","0","0","0","0","0","0","0","0","0","0","0","0","0","0","0","0","0","0","0","0"
"149",-6.6829437,15.1361794,AGO,Angola,Uíge,Damba,Mines_Africa_Districts_geocoded,,"0","1","0","0","0","2","107","0","0","0","0","0","0","0","0","0","0","0","0","0","0","0","0","0","0","0","0"
"150",-7.44,15.386667,AGO,Angola,Uíge,Bungo,Mines_Africa_Districts_geocoded,,"0","0","0","0","0","0","108","0","0","0","0","0","0","0","0","0","0","0","0","0","0","0","0","0","0","0","0"
"151",-14.6519667,16.89399,AGO,Angola,Cuando Cubango,Cuchi,Mines_Africa_Districts_geocoded,,"0","0","0","0","0","0","109","0","0","0","0","0","0","0","0","0","0","0","0","0","0","0","0","0","0","0","0"
"152",-10.5112481,16.0137094,AGO,Angola,Cuanza Sul,Mussende,Mines_Africa_Districts_geocoded,,"0","0","0","0","0","0","110","0","0","0","0","0","0","0","0","0","0","0","0","0","0","0","0","0","0","0","0"
"153",-8.9102672,14.7261268,AGO,Angola,Cuanza Norte,Dembos,Mines_Africa_Districts_geocoded,,"0","0","0","0","0","0","111","0","0","0","0","0","0","0","0","0","0","0","0","0","0","0","0","0","0","0","0"
"154",-17.06512955,15.7054331925272,AGO,Angola,Cunene,Cuanhama,Mines_Africa_Districts_geocoded,,"0","0","0","0","0","0","114","0","0","0","0","0","0","0","0","0","0","0","0","0","0","0","0","0","0","0","0"
"155",-8.8043556,13.2715131,AGO,Angola,Luanda,Sambizanga,Mines_Africa_Districts_geocoded,,"0","0","0","0","0","0","115","0","0","0","0","0","0","0","0","0","0","0","0","0","0","0","0","0","0","0","0"
"156",-8.033648,16.3431729,AGO,Angola,Malanje,Massango,Mines_Africa_Districts_geocoded,,"0","0","0","0","0","0","116","0","0","0","0","0","0","0","0","0","0","0","0","0","0","0","0","0","0","0","0"
"157",-11.033333,20.2,AGO,Angola,Lunda Sul,Dala,Mines_Africa_Districts_geocoded,,"0","0","0","0","0","0","117","0","0","0","0","0","0","0","0","0","0","0","0","0","0","0","0","0","0","0","0"
"158",-10.7325439,14.9805493,AGO,Angola,Cuanza Sul,Quibala,Mines_Africa_Districts_geocoded,,"0","0","0","0","0","0","118","0","0","0","0","0","0","0","0","0","0","0","0","0","0","0","0","0","0","0","0"
"159",-8.4640821,15.2487149,AGO,Angola,Cuanza Norte,Bolongongo,Mines_Africa_Districts_geocoded,,"0","0","0","0","0","0","119","0","0","0","0","0","0","0","0","0","0","0","0","0","0","0","0","0","0","0","0"
"160",-11.8532941,15.0475552,AGO,Angola,Cuanza Sul,Cassongue,Mines_Africa_Districts_geocoded,,"0","0","0","0","0","0","120","0","0","0","0","0","0","0","0","0","0","0","0","0","0","0","0","0","0","0","0"
"161",-12.0203585,17.4763605,AGO,Angola,Bié,Camacupa,Mines_Africa_Districts_geocoded,,"0","0","0","0","0","1","123","0","0","0","0","0","0","1","0","0","0","0","0","0","0","0","0","0","0","0","0"
"162",-15.195064,12.1458085,AGO,Angola,Namibe,Namibe,Mines_Africa_Districts_geocoded,,"0","0","0","0","0","0","124","0","0","0","0","0","0","0","0","0","0","0","0","0","0","0","0","0","0","0","0"
"163",-6.2678204,14.2417957,AGO,Angola,Zaire,M'Banza Congo,Mines_Africa_Districts_geocoded,,"0","0","0","0","0","0","126","0","0","0","0","0","0","0","0","0","0","0","0","0","0","0","0","0","0","0","0"
"164",-12.15,18.083333,AGO,Angola,Bié,Cuemba,Mines_Africa_Districts_geocoded,,"0","0","0","0","0","0","127","0","0","0","0","0","0","0","0","0","0","0","0","0","0","0","0","0","0","0","0"
"165",-8.5170053,15.3114563,AGO,Angola,Cuanza Norte,Quiculungo,Mines_Africa_Districts_geocoded,,"0","0","0","0","0","0","128","0","0","0","0","0","0","0","0","0","0","0","0","0","0","0","0","0","0","0","0"
"166",-14.7391876,15.0275962,AGO,Angola,Huíla,Matala,Mines_Africa_Districts_geocoded,,"0","0","0","0","0","0","129","0","0","0","0","0","0","0","0","0","0","0","0","0","0","0","0","0","0","0","0"
"167",-8.9053515,13.371089,AGO,Angola,Luanda,Viana,Mines_Africa_Districts_geocoded,,"0","0","0","0","0","0","130","0","0","0","0","0","0","0","0","0","0","0","0","0","0","0","0","0","0","0","0"
"168",-9.48179495,16.8637460059737,AGO,Angola,Malanje,Mucari,Mines_Africa_Districts_geocoded,,"0","0","0","0","0","0","131","0","0","0","0","0","0","0","0","0","0","0","0","0","0","0","0","0","0","0","0"
"169",-8.8267755,13.2303908,AGO,Angola,Luanda,Maianga,Mines_Africa_Districts_geocoded,,"0","0","0","0","0","0","132","0","0","0","0","0","0","0","0","0","0","0","0","0","0","0","0","0","0","0","0"
"170",-7.3530133,14.8473619,AGO,Angola,Uíge,Songo,Mines_Africa_Districts_geocoded,,"0","0","0","0","0","0","133","0","0","0","0","0","0","0","0","0","0","0","0","0","0","0","0","0","0","0","0"
"171",-6.52441,16.2147179,AGO,Angola,Uíge,Quimbele,Mines_Africa_Districts_geocoded,,"0","0","0","0","0","0","134","0","0","0","0","0","0","0","0","0","0","0","0","0","0","0","0","0","0","0","0"
"172",-6.1333775,12.3717566,AGO,Angola,Zaire,Soyo,Mines_Africa_Districts_geocoded,,"0","0","0","0","0","0","135","0","0","0","0","0","0","0","0","0","0","0","0","0","0","0","0","0","0","0","0"
"173",-5.8743966,13.4323871,AGO,Angola,Zaire,Noqui,Mines_Africa_Districts_geocoded,,"0","0","0","0","0","0","136","0","0","0","0","0","0","0","0","0","0","0","0","0","0","0","0","0","0","0","0"
"174",-15.8020583,11.8540055,AGO,Angola,Namibe,Tombwa,Mines_Africa_Districts_geocoded,,"0","0","0","0","0","0","137","0","0","0","0","0","0","0","0","0","0","0","0","0","0","0","0","0","0","0","0"
"175",-11.4343086,20.1674991,AGO,Angola,Moxico,Camanongue,Mines_Africa_Districts_geocoded,,"0","0","0","0","0","0","138","0","0","0","0","0","0","0","0","0","0","0","0","0","0","0","0","0","0","0","0"
"176",-8.4163883,18.6353044,AGO,Angola,Lunda Norte,Caungula,Mines_Africa_Districts_geocoded,,"0","0","0","0","0","0","139","0","0","0","0","0","0","0","0","0","0","0","0","0","0","0","0","0","0","0","0"
"177",-10.8939218,18.087115,AGO,Angola,Malanje,Quirima,Mines_Africa_Districts_geocoded,,"0","0","0","0","0","0","141","0","0","0","0","0","0","0","0","0","0","0","0","0","0","0","0","0","0","0","0"
"178",-4.6401237,12.7604903,AGO,Angola,Cabinda,Belize,Mines_Africa_Districts_geocoded,,"0","0","0","0","0","0","143","0","0","0","0","0","0","0","0","0","0","0","0","0","0","0","0","0","0","0","0"
"179",-6.8033305,13.3294418,AGO,Angola,Zaire,Tomboco,Mines_Africa_Districts_geocoded,,"0","0","0","0","0","1","144","0","0","0","0","0","0","0","0","0","0","0","0","1","0","0","0","0","0","0","0"
"180",-12.3831319,16.9425484,AGO,Angola,Bié,Kuito,Mines_Africa_Districts_geocoded,,"0","0","0","0","0","0","145","0","0","0","0","0","0","0","0","0","0","0","0","0","0","0","0","0","0","0","0"
"181",-9.0894697,15.9570919,AGO,Angola,Malanje,Calandula,Mines_Africa_Districts_geocoded,,"0","0","0","0","0","0","149","0","0","0","0","0","0","0","0","0","0","0","0","0","0","0","0","0","0","0","0"
"182",-7.6117323,15.0563515,AGO,Angola,Uíge,Uíge,Mines_Africa_Districts_geocoded,,"0","0","0","0","0","0","151","0","0","0","0","0","0","0","0","0","0","0","0","0","0","0","0","0","0","0","0"
"183",-12.4690414,14.1370622,AGO,Angola,Benguela,Bocoio,Mines_Africa_Districts_geocoded,,"0","0","0","0","0","0","152","0","0","0","0","0","0","0","0","0","0","0","0","0","0","0","0","0","0","0","0"
"184",-5.2214872,12.1413085,AGO,Angola,Cabinda,Landana,Mines_Africa_Districts_geocoded,,"0","0","0","0","0","0","153","0","0","0","0","0","0","0","0","0","0","0","0","0","0","0","0","0","0","0","0"
"185",-16.3280069,22.0245459,AGO,Angola,Cuando Cubango,Rivungo,Mines_Africa_Districts_geocoded,,"0","0","0","0","0","0","154","0","0","0","0","0","0","0","0","0","0","0","0","0","0","0","0","0","0","0","0"
"186",-11.36343,15.120778,AGO,Angola,Cuanza Sul,Waku Kungo,Mines_Africa_Districts_geocoded,,"0","0","0","0","0","0","155","0","0","0","0","0","0","0","0","0","0","0","0","0","0","0","0","0","0","0","0"
"187",-8.0178739,14.2009745,AGO,Angola,Bengo,Nambuangongo,Mines_Africa_Districts_geocoded,,"0","0","0","0","0","0","157","0","0","0","0","0","0","0","0","0","0","0","0","0","0","0","0","0","0","0","0"
"188",-9.2661326,15.2402503,AGO,Angola,Cuanza Norte,Lucala,Mines_Africa_Districts_geocoded,,"0","0","0","0","0","0","158","0","0","0","0","0","0","0","0","0","0","0","0","0","0","0","0","0","0","0","0"
"189",-17.9849784,20.7768148,AGO,Angola,Cuando Cubango,Dirico,Mines_Africa_Districts_geocoded,,"0","0","0","0","0","0","159","0","0","0","0","0","0","0","0","0","0","0","0","0","0","0","0","0","0","0","0"
"190",-13.5139271,16.7566586,AGO,Angola,Bié,Chitembo,Mines_Africa_Districts_geocoded,,"0","0","0","0","0","0","162","0","0","0","0","0","0","0","0","0","0","0","0","0","0","0","0","0","0","0","0"
"191",-7.844312,13.106493,AGO,Angola,Bengo,Ambriz,Mines_Africa_Districts_geocoded,,"0","0","0","0","0","0","163","0","0","0","0","0","0","0","0","0","0","0","0","0","0","0","0","0","0","0","0"
"192",-2.9297627,29.5908054,BDI,Burundi,Kayanza,Muruta,Mines_Africa_Districts_geocoded,,"0","0","0","0","0","0","164","0","0","0","0","0","0","0","0","0","0","0","0","0","0","0","0","0","0","0","0"
"193",-2.8496498,29.5408228,BDI,Burundi,Kayanza,Kabarore,Mines_Africa_Districts_geocoded,,"0","0","0","0","0","0","165","0","0","0","0","0","0","0","0","0","0","0","0","0","0","0","0","0","0","0","0"
"194",-3.7479499,29.9038563,BDI,Burundi,Gitega,Buraza,Mines_Africa_Districts_geocoded,,"0","0","0","0","0","0","166","0","0","0","0","0","0","0","0","0","0","0","0","0","0","0","0","0","0","0","0"
"195",-3.1977078,30.2264776,BDI,Burundi,Karuzi,Mutumba,Mines_Africa_Districts_geocoded,,"0","0","0","0","0","0","167","0","0","0","0","0","0","0","0","0","0","0","0","0","0","0","0","0","0","0","0"
"196",-3.2204922,30.5495774,BDI,Burundi,Cankuzo,Cankuzo,Mines_Africa_Districts_geocoded,,"0","0","0","0","0","0","168","0","0","0","0","0","0","0","0","0","0","0","0","0","0","0","0","0","0","0","0"
"197",-3.727403,30.0929812,BDI,Burundi,Rutana,Musongati,Mines_Africa_Districts_geocoded,,"0","0","0","0","0","1","169","0","0","0","0","0","0","0","0","0","0","0","1","0","0","0","0","0","0","0","0"
"198",-3.4546617,29.4605718,BDI,Burundi,Bujumbura Rural,Nyabiraba,Mines_Africa_Districts_geocoded,,"0","0","0","0","0","0","170","0","0","0","0","0","0","0","0","0","0","0","0","0","0","0","0","0","0","0","0"
"199",-2.9666868,29.1943658,BDI,Burundi,Cibitoke,Buganda,Mines_Africa_Districts_geocoded,,"0","0","0","0","0","0","171","0","0","0","0","0","0","0","0","0","0","0","0","0","0","0","0","0","0","0","0"
"200",-2.6079734,29.9937823,BDI,Burundi,Kirundo,Ntega,Mines_Africa_Districts_geocoded,,"0","0","0","0","0","0","172","0","0","0","0","0","0","0","0","0","0","0","0","0","0","0","0","0","0","0","0"
"201",-2.80816655,30.3741851585571,BDI,Burundi,Muyinga,Muyinga,Mines_Africa_Districts_geocoded,,"0","0","0","0","0","0","173","0","0","0","0","0","0","0","0","0","0","0","0","0","0","0","0","0","0","0","0"
"202",-2.9221912,29.974491,BDI,Burundi,Ngozi,Tangara,Mines_Africa_Districts_geocoded,,"0","0","0","0","0","0","174","0","0","0","0","0","0","0","0","0","0","0","0","0","0","0","0","0","0","0","0"
"203",-3.5276422,29.7374692,BDI,Burundi,Mwaro,Kayokwe,Mines_Africa_Districts_geocoded,,"0","0","0","0","0","0","175","0","0","0","0","0","0","0","0","0","0","0","0","0","0","0","0","0","0","0","0"
"204",-3.4580085,30.4983043,BDI,Burundi,Ruyigi,Gisuru,Mines_Africa_Districts_geocoded,,"0","0","0","0","0","0","176","0","0","0","0","0","0","0","0","0","0","0","0","0","0","0","0","0","0","0","0"
"205",-3.2867171,30.6020471,BDI,Burundi,Cankuzo,Cendajuru,Mines_Africa_Districts_geocoded,,"0","0","0","0","0","0","177","0","0","0","0","0","0","0","0","0","0","0","0","0","0","0","0","0","0","0","0"
"206",-3.0673117,29.4595269,BDI,Burundi,Bubanza,Musigati,Mines_Africa_Districts_geocoded,,"0","0","0","0","0","0","178","0","0","0","0","0","0","0","0","0","0","0","0","0","0","0","0","0","0","0","0"
"207",-3.4080112,29.353029,BDI,Burundi,Bujumbura Mairie,Kinindo,Mines_Africa_Districts_geocoded,,"0","0","0","0","0","0","179","0","0","0","0","0","0","0","0","0","0","0","0","0","0","0","0","0","0","0","0"
"208",-3.0683489,29.6106269,BDI,Burundi,Kayanza,Matongo,Mines_Africa_Districts_geocoded,,"0","0","0","0","0","0","180","0","0","0","0","0","0","0","0","0","0","0","0","0","0","0","0","0","0","0","0"
"209",-3.193627,29.6368213,BDI,Burundi,Muramvya,Bukeye,Mines_Africa_Districts_geocoded,,"0","0","0","0","0","0","181","0","0","0","0","0","0","0","0","0","0","0","0","0","0","0","0","0","0","0","0"
"210",-4.1036407,29.605883,BDI,Burundi,Bururi,Vyanda,Mines_Africa_Districts_geocoded,,"0","0","0","0","0","0","182","0","0","0","0","0","0","0","0","0","0","0","0","0","0","0","0","0","0","0","0"
"211",-3.7670139,29.6894104,BDI,Burundi,Bururi,Matana,Mines_Africa_Districts_geocoded,,"0","0","0","0","0","0","183","0","0","0","0","0","0","0","0","0","0","0","0","0","0","0","0","0","0","0","0"
"212",-2.5310466,30.0717683,BDI,Burundi,Kirundo,Bugabira,Mines_Africa_Districts_geocoded,,"0","0","0","0","0","0","186","0","0","0","0","0","0","0","0","0","0","0","0","0","0","0","0","0","0","0","0"
"213",-3.0282198,29.8327246,BDI,Burundi,Kayanza,Muhanga,Mines_Africa_Districts_geocoded,,"0","0","0","0","0","0","187","0","0","0","0","0","0","0","0","0","0","0","0","0","0","0","0","0","0","0","0"
"214",-3.1952943,29.3049199,BDI,Burundi,Bubanza,Gihanga,Mines_Africa_Districts_geocoded,,"0","0","0","0","0","0","188","0","0","0","0","0","0","0","0","0","0","0","0","0","0","0","0","0","0","0","0"
"215",-3.2025295,30.6932293,BDI,Burundi,Cankuzo,Gisagara,Mines_Africa_Districts_geocoded,,"0","0","0","0","0","0","189","0","0","0","0","0","0","0","0","0","0","0","0","0","0","0","0","0","0","0","0"
"216",-2.9297133,29.6321188,BDI,Burundi,Kayanza,Kayanza,Mines_Africa_Districts_geocoded,,"0","0","0","0","0","0","190","0","0","0","0","0","0","0","0","0","0","0","0","0","0","0","0","0","0","0","0"
"217",-3.08953765,30.3123581587547,BDI,Burundi,Muyinga,Mwakiro,Mines_Africa_Districts_geocoded,,"0","0","0","0","0","0","191","0","0","0","0","0","0","0","0","0","0","0","0","0","0","0","0","0","0","0","0"
"218",-3.3440762,29.483924,BDI,Burundi,Bujumbura Rural,Isale,Mines_Africa_Districts_geocoded,,"0","0","0","0","0","0","195","0","0","0","0","0","0","0","0","0","0","0","0","0","0","0","0","0","0","0","0"
"219",-3.9453227,29.6192469,BDI,Burundi,Bururi,Bururi,Mines_Africa_Districts_geocoded,,"0","0","0","0","0","0","197","0","0","0","0","0","0","0","0","0","0","0","0","0","0","0","0","0","0","0","0"
"220",-3.602357,29.9992483,BDI,Burundi,Gitega,Makebuko,Mines_Africa_Districts_geocoded,,"0","0","0","0","0","0","198","0","0","0","0","0","0","0","0","0","0","0","0","0","0","0","0","0","0","0","0"
"221",-4.1717211,29.7062661,BDI,Burundi,Makamba,Vugizo,Mines_Africa_Districts_geocoded,,"0","0","0","0","0","0","200","0","0","0","0","0","0","0","0","0","0","0","0","0","0","0","0","0","0","0","0"
"222",-3.0845915,29.3948368,BDI,Burundi,Bubanza,Bubanza,Mines_Africa_Districts_geocoded,,"0","0","0","0","0","0","201","0","0","0","0","0","0","0","0","0","0","0","0","0","0","0","0","0","0","0","0"
"223",-3.5304618,29.4282612,BDI,Burundi,Bujumbura Rural,Mutambu,Mines_Africa_Districts_geocoded,,"0","0","0","0","0","0","202","0","0","0","0","0","0","0","0","0","0","0","0","0","0","0","0","0","0","0","0"
"224",-2.8858876,29.202775,BDI,Burundi,Cibitoke,Murwi,Mines_Africa_Districts_geocoded,,"0","0","0","0","0","0","203","0","0","0","0","0","0","0","0","0","0","0","0","0","0","0","0","0","0","0","0"
"225",-4.2743686,29.7754932,BDI,Burundi,Makamba,Mabanda,Mines_Africa_Districts_geocoded,,"0","0","0","0","0","0","205","0","0","0","0","0","0","0","0","0","0","0","0","0","0","0","0","0","0","0","0"
"226",-3.7802425,30.2353649,BDI,Burundi,Rutana,Giharo,Mines_Africa_Districts_geocoded,,"0","1","0","0","0","2","206","0","0","0","0","0","1","0","0","0","0","0","2","0","0","0","0","0","0","0","0"
"227",-3.7123955,29.7916247,BDI,Burundi,Gitega,Ryansoro,Mines_Africa_Districts_geocoded,,"0","0","0","0","0","0","207","0","0","0","0","0","0","0","0","0","0","0","0","0","0","0","0","0","0","0","0"
"228",-2.7423205,29.9941415,BDI,Burundi,Ngozi,Marangara,Mines_Africa_Districts_geocoded,,"0","0","0","0","0","0","208","0","0","0","0","0","0","0","0","0","0","0","0","0","0","0","0","0","0","0","0"
"229",-2.88251,29.3367361,BDI,Burundi,Cibitoke,Bukinanyana,Mines_Africa_Districts_geocoded,,"0","0","0","0","0","0","209","0","0","0","0","0","0","0","0","0","0","0","0","0","0","0","0","0","0","0","0"
"230",-2.5261969,30.2170754,BDI,Burundi,Kirundo,Busoni,Mines_Africa_Districts_geocoded,,"0","0","0","0","0","0","210","0","0","0","0","0","0","0","0","0","0","0","0","0","0","0","0","0","0","0","0"
"231",-2.9838681,29.649148,BDI,Burundi,Kayanza,Gatara,Mines_Africa_Districts_geocoded,,"0","0","0","0","0","0","211","0","0","0","0","0","0","0","0","0","0","0","0","0","0","0","0","0","0","0","0"
"232",-2.80636945,29.8892432321104,BDI,Burundi,Ngozi,Nyamurenza,Mines_Africa_Districts_geocoded,,"0","0","0","0","0","0","212","0","0","0","0","0","0","0","0","0","0","0","0","0","0","0","0","0","0","0","0"
"233",-3.3228043,30.4706582,BDI,Burundi,Ruyigi,Bweru,Mines_Africa_Districts_geocoded,,"0","0","0","0","0","0","213","0","0","0","0","0","0","0","0","0","0","0","0","0","0","0","0","0","0","0","0"
"234",-3.2831715,29.4963892,BDI,Burundi,Bujumbura Rural,Mubimbi,Mines_Africa_Districts_geocoded,,"0","0","0","0","0","0","214","0","0","0","0","0","0","0","0","0","0","0","0","0","0","0","0","0","0","0","0"
"235",-3.5732709,29.5161936,BDI,Burundi,Bujumbura Rural,Mukike,Mines_Africa_Districts_geocoded,,"0","0","0","0","0","0","215","0","0","0","0","0","0","0","0","0","0","0","0","0","0","0","0","0","0","0","0"
"236",-3.3540882,29.3722343,BDI,Burundi,Bujumbura Mairie,Ngagara,Mines_Africa_Districts_geocoded,,"0","0","0","0","0","0","216","0","0","0","0","0","0","0","0","0","0","0","0","0","0","0","0","0","0","0","0"
"237",-3.8810529,29.8473545,BDI,Burundi,Bururi,Rutovu,Mines_Africa_Districts_geocoded,,"0","0","0","0","0","0","217","0","0","0","0","0","0","0","0","0","0","0","0","0","0","0","0","0","0","0","0"
"238",-3.1436745,29.8664414,BDI,Burundi,Gitega,Mutaho,Mines_Africa_Districts_geocoded,,"0","0","0","0","0","0","218","0","0","0","0","0","0","0","0","0","0","0","0","0","0","0","0","0","0","0","0"
"239",-2.7099644,30.3226541872592,BDI,Burundi,Muyinga,Butihinda,Mines_Africa_Districts_geocoded,,"0","0","0","0","0","0","219","0","0","0","0","0","0","0","0","0","0","0","0","0","0","0","0","0","0","0","0"
"240",-4.0066838,30.0624289,BDI,Burundi,Rutana,Bukemba,Mines_Africa_Districts_geocoded,,"0","0","0","0","0","0","221","0","0","0","0","0","0","0","0","0","0","0","0","0","0","0","0","0","0","0","0"
"241",-4.3384765,29.6046835,BDI,Burundi,Makamba,Nyanza-Lac,Mines_Africa_Districts_geocoded,,"0","0","0","0","0","0","222","0","0","0","0","0","0","0","0","0","0","0","0","0","0","0","0","0","0","0","0"
"242",-3.5386726,30.2742314,BDI,Burundi,Ruyigi,Nyabitsinda,Mines_Africa_Districts_geocoded,,"0","0","0","0","0","0","224","0","0","0","0","0","0","0","0","0","0","0","0","0","0","0","0","0","0","0","0"
"243",-3.3038504,29.7491068,BDI,Burundi,Muramvya,Rutegama,Mines_Africa_Districts_geocoded,,"0","0","0","0","0","0","225","0","0","0","0","0","0","0","0","0","0","0","0","0","0","0","0","0","0","0","0"
"244",-3.4400797,29.6318714,BDI,Burundi,Mwaro,Rusaka,Mines_Africa_Districts_geocoded,,"0","0","0","0","0","0","226","0","0","0","0","0","0","0","0","0","0","0","0","0","0","0","0","0","0","0","0"
"245",-2.84883,30.2359793201527,BDI,Burundi,Muyinga,Gasorwe,Mines_Africa_Districts_geocoded,,"0","0","0","0","0","0","227","0","0","0","0","0","0","0","0","0","0","0","0","0","0","0","0","0","0","0","0"
"246",-3.067389,30.541011,BDI,Burundi,Cankuzo,Kigamba,Mines_Africa_Districts_geocoded,,"0","0","0","0","0","0","228","0","0","0","0","0","0","0","0","0","0","0","0","0","0","0","0","0","0","0","0"
"247",-2.5853872,30.0933449,BDI,Burundi,Kirundo,Kirundo,Mines_Africa_Districts_geocoded,,"0","0","0","0","0","0","230","0","0","0","0","0","0","0","0","0","0","0","0","0","0","0","0","0","0","0","0"
"248",-3.636156,29.7077404,BDI,Burundi,Mwaro,Bisoro,Mines_Africa_Districts_geocoded,,"0","0","0","0","0","0","231","0","0","0","0","0","0","0","0","0","0","0","0","0","0","0","0","0","0","0","0"
"249",-3.4128069,29.3763463,BDI,Burundi,Bujumbura Mairie,Musaga,Mines_Africa_Districts_geocoded,,"0","0","0","0","0","0","232","0","0","0","0","0","0","0","0","0","0","0","0","0","0","0","0","0","0","0","0"
"250",-3.3455362,29.3863122,BDI,Burundi,Bujumbura Mairie,Kamenge,Mines_Africa_Districts_geocoded,,"0","0","0","0","0","0","233","0","0","0","0","0","0","0","0","0","0","0","0","0","0","0","0","0","0","0","0"
"251",-3.2876542,29.324133,BDI,Burundi,Bujumbura Rural,Mutimbuzi,Mines_Africa_Districts_geocoded,,"0","0","0","0","0","0","234","0","0","0","0","0","0","0","0","0","0","0","0","0","0","0","0","0","0","0","0"
"252",-2.5831216,30.3344506,BDI,Burundi,Kirundo,Bwambarangwe,Mines_Africa_Districts_geocoded,,"0","0","0","0","0","0","236","0","0","0","0","0","0","0","0","0","0","0","0","0","0","0","0","0","0","0","0"
"253",-3.2663248,29.6167289,BDI,Burundi,Muramvya,Muramvya,Mines_Africa_Districts_geocoded,,"0","0","0","0","0","0","237","0","0","0","0","0","0","0","0","0","0","0","0","0","0","0","0","0","0","0","0"
"254",-3.6145867,29.864734,BDI,Burundi,Gitega,Gishubi,Mines_Africa_Districts_geocoded,,"0","0","0","0","0","0","238","0","0","0","0","0","0","0","0","0","0","0","0","0","0","0","0","0","0","0","0"
"255",-3.3731287,29.3689249,BDI,Burundi,Bujumbura Mairie,Bwiza,Mines_Africa_Districts_geocoded,,"0","0","0","0","0","0","239","0","0","0","0","0","0","0","0","0","0","0","0","0","0","0","0","0","0","0","0"
"256",-2.908062,29.8987257,BDI,Burundi,Ngozi,Gashikanwa,Mines_Africa_Districts_geocoded,,"0","0","0","0","0","0","240","0","0","0","0","0","0","0","0","0","0","0","0","0","0","0","0","0","0","0","0"
"257",-3.0213862,29.7646133,BDI,Burundi,Kayanza,Gahombo,Mines_Africa_Districts_geocoded,,"0","0","0","0","0","0","241","0","0","0","0","0","0","0","0","0","0","0","0","0","0","0","0","0","0","0","0"
"258",-3.3784455,29.7800542,BDI,Burundi,Mwaro,Ndava,Mines_Africa_Districts_geocoded,,"0","0","0","0","0","0","242","0","0","0","0","0","0","0","0","0","0","0","0","0","0","0","0","0","0","0","0"
"259",-3.3639167,29.395812,BDI,Burundi,Bujumbura Mairie,Gihosha,Mines_Africa_Districts_geocoded,,"0","0","0","0","0","0","243","0","0","0","0","0","0","0","0","0","0","0","0","0","0","0","0","0","0","0","0"
"260",-3.3334797,29.3767699,BDI,Burundi,Bujumbura Mairie,Kinama,Mines_Africa_Districts_geocoded,,"0","0","0","0","0","0","244","0","0","0","0","0","0","0","0","0","0","0","0","0","0","0","0","0","0","0","0"
"261",-3.2546182,30.04946,BDI,Burundi,Karuzi,Shombo,Mines_Africa_Districts_geocoded,,"0","0","0","0","0","0","245","0","0","0","0","0","0","0","0","0","0","0","0","0","0","0","0","0","0","0","0"
"262",-3.3338802,29.354182,BDI,Burundi,Bujumbura Mairie,Buterere,Mines_Africa_Districts_geocoded,,"0","0","0","0","0","0","246","0","0","0","0","0","0","0","0","0","0","0","0","0","0","0","0","0","0","0","0"
"263",-3.6574594,30.3430215,BDI,Burundi,Ruyigi,Kinyinya,Mines_Africa_Districts_geocoded,,"0","0","0","0","0","0","247","0","0","0","0","0","0","0","0","0","0","0","0","0","0","0","0","0","0","0","0"
"264",-3.072976,30.7224706380764,BDI,Burundi,Cankuzo,Mishiha,Mines_Africa_Districts_geocoded,,"0","0","0","0","0","0","248","0","0","0","0","0","0","0","0","0","0","0","0","0","0","0","0","0","0","0","0"
"265",-3.7967006,30.155538,BDI,Burundi,Rutana,Mpinga-Kayove,Mines_Africa_Districts_geocoded,,"0","0","0","0","0","0","249","0","0","0","0","0","0","0","0","0","0","0","0","0","0","0","0","0","0","0","0"
"266",-3.0260354,30.3623737,BDI,Burundi,Muyinga,Buhinyuza,Mines_Africa_Districts_geocoded,,"0","0","0","0","0","0","250","0","0","0","0","0","0","0","0","0","0","0","0","0","0","0","0","0","0","0","0"
"267",-3.8596984,29.7200022,BDI,Burundi,Bururi,Songa,Mines_Africa_Districts_geocoded,,"0","0","0","0","0","0","251","0","0","0","0","0","0","0","0","0","0","0","0","0","0","0","0","0","0","0","0"
"268",-4.2878764,29.8398955,BDI,Burundi,Makamba,Kibago,Mines_Africa_Districts_geocoded,,"0","0","0","0","0","0","253","0","0","0","0","0","0","0","0","0","0","0","0","0","0","0","0","0","0","0","0"
"269",-3.1219456,29.7471079,BDI,Burundi,Kayanza,Rango,Mines_Africa_Districts_geocoded,,"0","0","0","0","0","0","254","0","0","0","0","0","0","0","0","0","0","0","0","0","0","0","0","0","0","0","0"
"270",-3.36418,29.8587765,BDI,Burundi,Gitega,Giheta,Mines_Africa_Districts_geocoded,,"0","1","0","0","0","2","255","0","0","0","0","0","0","0","0","0","0","0","2","0","0","0","0","0","0","0","0"
"271",-2.8216029,30.1407046,BDI,Burundi,Muyinga,Gashoho,Mines_Africa_Districts_geocoded,,"0","0","0","0","0","0","256","0","0","0","0","0","0","0","0","0","0","0","0","0","0","0","0","0","0","0","0"
"272",-3.1692813,29.404712,BDI,Burundi,Bubanza,Mpanda,Mines_Africa_Districts_geocoded,,"0","0","0","0","0","0","257","0","0","0","0","0","0","0","0","0","0","0","0","0","0","0","0","0","0","0","0"
"273",-3.6650055,29.5865785,BDI,Burundi,Bururi,Mugamba,Mines_Africa_Districts_geocoded,,"0","0","0","0","0","0","258","0","0","0","0","0","0","0","0","0","0","0","0","0","0","0","0","0","0","0","0"
"274",-3.6164221,30.0273561,BDI,Burundi,Gitega,Itaba,Mines_Africa_Districts_geocoded,,"0","0","0","0","0","0","259","0","0","0","0","0","0","0","0","0","0","0","0","0","0","0","0","0","0","0","0"
"275",-3.4284953,29.9249718,BDI,Burundi,Gitega,Gitega,Mines_Africa_Districts_geocoded,,"0","0","0","0","0","1","261","0","0","0","0","0","0","0","0","0","0","0","1","0","0","0","0","0","0","0","0"
"276",-3.4693654,29.8081085,BDI,Burundi,Mwaro,Nyabihanga,Mines_Africa_Districts_geocoded,,"0","0","0","0","0","0","262","0","0","0","0","0","0","0","0","0","0","0","0","0","0","0","0","0","0","0","0"
"277",-3.4683869,29.5451163,BDI,Burundi,Bujumbura Rural,Mugongomanga,Mines_Africa_Districts_geocoded,,"0","0","0","0","0","0","263","0","0","0","0","0","0","0","0","0","0","0","0","0","0","0","0","0","0","0","0"
"278",-3.4733471,30.2501278,BDI,Burundi,Ruyigi,Ruyigi,Mines_Africa_Districts_geocoded,,"0","0","0","0","0","0","264","0","0","0","0","0","0","0","0","0","0","0","0","0","0","0","0","0","0","0","0"
"279",-2.909091,29.8230442,BDI,Burundi,Ngozi,Ngozi,Mines_Africa_Districts_geocoded,,"0","0","0","0","0","0","265","0","0","0","0","0","0","0","0","0","0","0","0","0","0","0","0","0","0","0","0"
"280",-4.1347916,29.8046322,BDI,Burundi,Makamba,Makamba,Mines_Africa_Districts_geocoded,,"0","0","0","0","0","0","266","0","0","0","0","0","0","0","0","0","0","0","0","0","0","0","0","0","0","0","0"
"281",-3.0518553,29.8857336,BDI,Burundi,Ngozi,Ruhororo,Mines_Africa_Districts_geocoded,,"0","1","0","0","0","1","267","0","0","0","0","0","0","0","0","0","0","0","1","0","1","0","0","0","0","0","0"
"282",-2.69461645,30.0782135495132,BDI,Burundi,Kirundo,Vumbi,Mines_Africa_Districts_geocoded,,"0","0","0","0","0","0","268","0","0","0","0","0","0","0","0","0","0","0","0","0","0","0","0","0","0","0","0"
"283",-3.2329786,29.9140423,BDI,Burundi,Gitega,Bugendana,Mines_Africa_Districts_geocoded,,"0","0","0","0","0","0","269","0","0","0","0","0","0","0","0","0","0","0","0","0","0","0","0","0","0","0","0"
"284",-2.7155058,29.2444205,BDI,Burundi,Cibitoke,Mabayi,Mines_Africa_Districts_geocoded,,"0","0","0","0","0","0","270","0","0","0","0","0","0","0","0","0","0","0","0","0","0","0","0","0","0","0","0"
"285",-2.5172828,30.458614,BDI,Burundi,Muyinga,Giteranyi,Mines_Africa_Districts_geocoded,,"0","0","0","0","0","0","271","0","0","0","0","0","0","0","0","0","0","0","0","0","0","0","0","0","0","0","0"
"286",-2.8296063,30.023607285789,BDI,Burundi,Ngozi,Kiremba,Mines_Africa_Districts_geocoded,,"0","0","0","0","0","0","272","0","0","0","0","0","0","0","0","0","0","0","0","0","0","0","0","0","0","0","0"
"287",-2.8130179,29.0821647,BDI,Burundi,Cibitoke,Rugombo,Mines_Africa_Districts_geocoded,,"0","0","0","0","0","0","273","0","0","0","0","0","0","0","0","0","0","0","0","0","0","0","0","0","0","0","0"
"288",-2.6483606,30.2012236,BDI,Burundi,Kirundo,Gitobe,Mines_Africa_Districts_geocoded,,"0","0","0","0","0","0","274","0","0","0","0","0","0","0","0","0","0","0","0","0","0","0","0","0","0","0","0"
"289",-3.3841056,29.3510014,BDI,Burundi,Bujumbura Mairie,Lake Tanganyika,Mines_Africa_Districts_geocoded,,"0","0","0","0","0","0","275","0","0","0","0","0","0","0","0","0","0","0","0","0","0","0","0","0","0","0","0"
"290",-3.3739951,29.3792173,BDI,Burundi,Bujumbura Mairie,Nyakabiga,Mines_Africa_Districts_geocoded,,"0","0","0","0","0","0","276","0","0","0","0","0","0","0","0","0","0","0","0","0","0","0","0","0","0","0","0"
"291",-3.7019888,29.9634235,BDI,Burundi,Gitega,Bukirasazi,Mines_Africa_Districts_geocoded,,"0","0","0","0","0","0","277","0","0","0","0","0","0","0","0","0","0","0","0","0","0","0","0","0","0","0","0"
"292",-2.8587912,29.7907586,BDI,Burundi,Ngozi,Mwumba,Mines_Africa_Districts_geocoded,,"0","0","0","0","0","0","278","0","0","0","0","0","0","0","0","0","0","0","0","0","0","0","0","0","0","0","0"
"293",-3.5350428,29.3452069,BDI,Burundi,Bujumbura Rural,Kabezi,Mines_Africa_Districts_geocoded,,"0","0","0","0","0","0","279","0","0","0","0","0","0","0","0","0","0","0","0","0","0","0","0","0","0","0","0"
"294",-3.0940413,30.0640333,BDI,Burundi,Karuzi,Bugenyuzi,Mines_Africa_Districts_geocoded,,"0","0","0","0","0","0","280","0","0","0","0","0","0","0","0","0","0","0","0","0","0","0","0","0","0","0","0"
"295",-3.2300792,29.7210705,BDI,Burundi,Muramvya,Mbuye,Mines_Africa_Districts_geocoded,,"0","0","0","0","0","0","281","0","0","0","0","0","0","0","0","0","0","0","0","0","0","0","0","0","0","0","0"
"296",-3.2653493,30.111956,BDI,Burundi,Karuzi,Nyabikere,Mines_Africa_Districts_geocoded,,"0","0","0","0","0","0","282","0","0","0","0","0","0","0","0","0","0","0","0","0","0","0","0","0","0","0","0"
"297",-3.9580773,29.8384052,BDI,Burundi,Bururi,Burambi,Mines_Africa_Districts_geocoded,,"0","0","0","0","0","0","283","0","0","0","0","0","0","0","0","0","0","0","0","0","0","0","0","0","0","0","0"
"298",-4.1176232,29.945015,BDI,Burundi,Makamba,Kayogoro,Mines_Africa_Districts_geocoded,,"0","0","0","0","0","0","284","0","0","0","0","0","0","0","0","0","0","0","0","0","0","0","0","0","0","0","0"
"299",-3.3422587,29.3769066,BDI,Burundi,Bujumbura Mairie,Cibitoke,Mines_Africa_Districts_geocoded,,"0","0","0","0","0","0","285","0","0","0","0","0","0","0","0","0","0","0","0","0","0","0","0","0","0","0","0"
"300",-2.9810861,30.172727,BDI,Burundi,Karuzi,Gitaramuka,Mines_Africa_Districts_geocoded,,"0","0","0","0","0","0","286","0","0","0","0","0","0","0","0","0","0","0","0","0","0","0","0","0","0","0","0"
"301",-3.34493,29.6872761,BDI,Burundi,Muramvya,Kiganda,Mines_Africa_Districts_geocoded,,"0","0","0","0","0","0","287","0","0","0","0","0","0","0","0","0","0","0","0","0","0","0","0","0","0","0","0"
"302",-3.9822114,29.9176114,BDI,Burundi,Rutana,Gitanga,Mines_Africa_Districts_geocoded,,"0","0","0","0","0","0","288","0","0","0","0","0","0","0","0","0","0","0","0","0","0","0","0","0","0","0","0"
"303",-2.7908688,29.1294569,BDI,Burundi,Cibitoke,Mugina,Mines_Africa_Districts_geocoded,,"0","0","0","0","0","0","289","0","0","0","0","0","0","0","0","0","0","0","0","0","0","0","0","0","0","0","0"
"304",-3.0249219,30.1684426,BDI,Burundi,Karuzi,Buhiga,Mines_Africa_Districts_geocoded,,"0","0","0","0","0","0","290","0","0","0","0","0","0","0","0","0","0","0","0","0","0","0","0","0","0","0","0"
"305",-3.3936912,30.1549329,BDI,Burundi,Ruyigi,Butezi,Mines_Africa_Districts_geocoded,,"0","0","0","0","0","1","291","0","0","0","0","0","0","0","0","0","0","0","1","0","0","0","0","0","0","0","0"
"306",-3.2381391,29.4747067,BDI,Burundi,Bubanza,Rugazi,Mines_Africa_Districts_geocoded,,"0","0","0","0","0","0","292","0","0","0","0","0","0","0","0","0","0","0","0","0","0","0","0","0","0","0","0"
"307",-3.9263608,29.990574,BDI,Burundi,Rutana,Rutana,Mines_Africa_Districts_geocoded,,"0","0","0","0","0","0","293","0","0","0","0","0","0","0","0","0","0","0","0","0","0","0","0","0","0","0","0"
"308",-2.8793486,29.7383767,BDI,Burundi,Ngozi,Busiga,Mines_Africa_Districts_geocoded,,"0","0","0","0","0","0","294","0","0","0","0","0","0","0","0","0","0","0","0","0","0","0","0","0","0","0","0"
"309",-3.1222513,30.0034319,BDI,Burundi,Karuzi,Gihogazi,Mines_Africa_Districts_geocoded,,"0","0","0","0","0","0","295","0","0","0","0","0","0","0","0","0","0","0","0","0","0","0","0","0","0","0","0"
"310",-3.5659737,29.6825013,BDI,Burundi,Mwaro,Gisozi,Mines_Africa_Districts_geocoded,,"0","0","0","0","0","0","296","0","0","0","0","0","0","0","0","0","0","0","0","0","0","0","0","0","0","0","0"
"311",11.91622705,2.71214223709307,BEN,Benin,Alibori,Karimama,Mines_Africa_Districts_geocoded,,"0","0","0","0","0","1","297","0","0","0","0","0","0","0","0","0","0","0","0","0","0","0","0","0","0","0","0"
"312",6.4450306,2.0137014,BEN,Benin,Atlantique,Kpomassè,Mines_Africa_Districts_geocoded,,"0","0","0","0","0","0","298","0","0","0","0","0","0","0","0","0","0","0","0","0","0","0","0","0","0","0","0"
"313",6.48487195,2.5395829827801,BEN,Benin,Ouémé,Aguégués,Mines_Africa_Districts_geocoded,,"0","0","0","0","0","0","299","0","0","0","0","0","0","0","0","0","0","0","0","0","0","0","0","0","0","0","0"
"314",6.6805991,2.718289,BEN,Benin,Plateau,Ifangni,Mines_Africa_Districts_geocoded,,"0","0","0","0","0","0","300","0","0","0","0","0","0","0","0","0","0","0","0","0","0","0","0","0","0","0","0"
"315",6.5661833,1.8547538,BEN,Benin,Mono,Houéyogbé,Mines_Africa_Districts_geocoded,,"0","0","0","0","0","0","301","0","0","0","0","0","0","0","0","0","0","0","0","0","0","0","0","0","0","0","0"
"316",10.965512,1.42033825081194,BEN,Benin,Atakora,Tanguiéta,Mines_Africa_Districts_geocoded,,"0","0","0","0","0","0","302","0","0","0","0","0","0","0","0","0","0","0","0","0","0","0","0","0","0","0","0"
"317",6.73078365,2.33290725034488,BEN,Benin,Atlantique,Zè,Mines_Africa_Districts_geocoded,,"0","0","0","0","0","0","303","0","0","0","0","0","0","0","0","0","0","0","0","0","0","0","0","0","0","0","0"
"318",9.605063,3.02952353230645,BEN,Benin,Borgou,Pèrèrè,Mines_Africa_Districts_geocoded,,"0","0","0","0","0","0","304","0","0","0","0","0","0","0","0","0","0","0","0","0","0","0","0","0","0","0","0"
"319",10.8522725,2.7290948,BEN,Benin,Alibori,Gogounou,Mines_Africa_Districts_geocoded,,"0","0","0","0","0","0","305","0","0","0","0","0","0","0","0","0","0","0","0","0","0","0","0","0","0","0","0"
"320",10.2308948,2.0004282,BEN,Benin,Atakora,Péhunco,Mines_Africa_Districts_geocoded,,"0","0","0","0","0","0","306","0","0","0","0","0","0","0","0","0","0","0","0","0","0","0","0","0","0","0","0"
"321",7.21660735,2.39048109864678,BEN,Benin,Zou,Zagnanado,Mines_Africa_Districts_geocoded,,"0","0","0","0","0","0","307","0","0","0","0","0","0","0","0","0","0","0","0","0","0","0","0","0","0","0","0"
"322",6.9489244,1.7041012,BEN,Benin,Kouffo,Aplahoué,Mines_Africa_Districts_geocoded,,"0","0","0","0","0","0","308","0","0","0","0","0","0","0","0","0","0","0","0","0","0","0","0","0","0","0","0"
"323",8.8881676,2.596108,BEN,Benin,Borgou,Tchaourou,Mines_Africa_Districts_geocoded,,"0","0","0","0","0","0","309","0","0","0","0","0","0","0","0","0","0","0","0","0","0","0","0","0","0","0","0"
"324",7.22026665,2.19089694065425,BEN,Benin,Zou,Za-Kpota,Mines_Africa_Districts_geocoded,,"0","0","0","0","0","0","310","0","0","0","0","0","0","0","0","0","0","0","0","0","0","0","0","0","0","0","0"
"325",10.2514083,1.38354098638007,BEN,Benin,Atakora,Natitingou,Mines_Africa_Districts_geocoded,,"0","0","0","0","0","0","311","0","0","0","0","0","0","0","0","0","0","0","0","0","0","0","0","0","0","0","0"
"326",8.96666435,1.82183966843079,BEN,Benin,Donga,Bassila,Mines_Africa_Districts_geocoded,,"0","0","0","0","0","0","312","0","0","0","0","0","0","0","0","0","0","0","0","0","0","0","0","0","0","0","0"
"327",8.4919261,2.4258417,BEN,Benin,Collines,Ouèssè,Mines_Africa_Districts_geocoded,,"0","0","0","0","0","0","313","0","0","0","0","0","0","0","0","0","0","0","0","0","0","0","0","0","0","0","0"
"328",10.2880733,3.3792735,BEN,Benin,Borgou,Kalalé,Mines_Africa_Districts_geocoded,,"0","0","0","0","0","0","314","0","0","0","0","0","0","0","0","0","0","0","0","0","0","0","0","0","0","0","0"
"329",6.502478,2.1441704,BEN,Benin,Atlantique,Tori-Bossito,Mines_Africa_Districts_geocoded,,"0","0","0","0","0","0","316","0","0","0","0","0","0","0","0","0","0","0","0","0","0","0","0","0","0","0","0"
"330",6.5564209,2.6550687,BEN,Benin,Ouémé,Avrankou,Mines_Africa_Districts_geocoded,,"0","0","0","0","0","0","317","0","0","0","0","0","0","0","0","0","0","0","0","0","0","0","0","0","0","0","0"
"331",7.01729035,2.20306582428993,BEN,Benin,Zou,Zogbodomey,Mines_Africa_Districts_geocoded,,"0","0","0","0","0","0","318","0","0","0","0","0","0","0","0","0","0","0","0","0","0","0","0","0","0","0","0"
"332",7.2999575,2.29892733440349,BEN,Benin,Zou,Covè,Mines_Africa_Districts_geocoded,,"0","0","0","0","0","0","319","0","0","0","0","0","0","0","0","0","0","0","0","0","0","0","0","0","0","0","0"
"333",7.7815402,2.183606,BEN,Benin,Collines,Dassa-Zoumè,Mines_Africa_Districts_geocoded,,"0","0","0","0","0","0","320","0","0","0","0","0","0","0","0","0","0","0","0","0","0","0","0","0","0","0","0"
"334",6.5893347,1.9668937,BEN,Benin,Mono,Bopa,Mines_Africa_Districts_geocoded,,"0","0","0","0","0","0","321","0","0","0","0","0","0","0","0","0","0","0","0","0","0","0","0","0","0","0","0"
"335",6.2763745,1.8067199,BEN,Benin,Mono,Grand-Popo,Mines_Africa_Districts_geocoded,,"0","0","0","0","0","0","322","0","0","0","0","0","0","0","0","0","0","0","0","0","0","0","0","0","0","0","0"
"336",6.3676953,2.4252507,BEN,Benin,Littoral,Cotonou,Mines_Africa_Districts_geocoded,,"0","0","0","0","0","0","323","0","0","0","0","0","0","0","0","0","0","0","0","0","0","0","0","0","0","0","0"
"337",6.6981376,2.51641099815539,BEN,Benin,Ouémé,Adjohoun,Mines_Africa_Districts_geocoded,,"0","0","0","0","0","0","324","0","0","0","0","0","0","0","0","0","0","0","0","0","0","0","0","0","0","0","0"
"338",7.9297324,1.9780951,BEN,Benin,Collines,Savalou,Mines_Africa_Districts_geocoded,,"0","0","0","0","0","0","325","0","0","0","0","0","0","0","0","0","0","0","0","0","0","0","0","0","0","0","0"
"339",10.260695,2.36797930191215,BEN,Benin,Borgou,Sinendé,Mines_Africa_Districts_geocoded,,"0","0","0","0","0","0","326","0","0","0","0","0","0","0","0","0","0","0","0","0","0","0","0","0","0","0","0"
"340",11.32625415,2.47304068022334,BEN,Benin,Alibori,Banikoara,Mines_Africa_Districts_geocoded,,"0","0","0","0","0","0","327","0","0","0","0","0","0","0","0","0","0","0","0","0","0","0","0","0","0","0","0"
"341",10.9762375,3.50534468212122,BEN,Benin,Alibori,Segbana,Mines_Africa_Districts_geocoded,,"0","0","0","0","0","0","328","0","0","0","0","0","0","0","0","0","0","0","0","0","0","0","0","0","0","0","0"
"342",6.89178795,1.8209605779941,BEN,Benin,Kouffo,Toviklin,Mines_Africa_Districts_geocoded,,"0","0","0","0","0","0","329","0","0","0","0","0","0","0","0","0","0","0","0","0","0","0","0","0","0","0","0"
"343",6.5662073,2.51544769354959,BEN,Benin,Ouémé,Dangbo,Mines_Africa_Districts_geocoded,,"0","0","0","0","0","0","330","0","0","0","0","0","0","0","0","0","0","0","0","0","0","0","0","0","0","0","0"
"344",11.8618128,3.3862982,BEN,Benin,Alibori,Malanville,Mines_Africa_Districts_geocoded,,"0","0","0","0","0","1","331","0","0","0","0","0","0","0","0","0","0","0","0","0","0","0","0","0","0","0","0"
"345",8.16811735,2.22913575273068,BEN,Benin,Collines,Glazoué,Mines_Africa_Districts_geocoded,,"0","0","0","0","0","0","332","0","0","0","0","0","0","0","0","0","0","0","0","0","0","0","0","0","0","0","0"
"346",9.899685,3.17802542116152,BEN,Benin,Borgou,Nikki,Mines_Africa_Districts_geocoded,,"0","0","0","0","0","0","333","0","0","0","0","0","0","0","0","0","0","0","0","0","0","0","0","0","0","0","0"
"347",7.39911905,1.97690646448984,BEN,Benin,Zou,Djidja,Mines_Africa_Districts_geocoded,,"0","0","0","0","0","0","334","0","0","0","0","0","0","0","0","0","0","0","0","0","0","0","0","0","0","0","0"
"348",6.2687912,2.61341862367628,BEN,Benin,Ouémé,Sèmè-Kpodji,Mines_Africa_Districts_geocoded,,"0","0","0","0","0","0","335","0","0","0","0","0","0","0","0","0","0","0","0","0","0","0","0","0","0","0","0"
"349",8.33007795,1.8696095473097,BEN,Benin,Collines,Bantè,Mines_Africa_Districts_geocoded,,"0","0","0","0","0","0","336","0","0","0","0","0","0","0","0","0","0","0","0","0","0","0","0","0","0","0","0"
"350",6.6658411,2.1511876,BEN,Benin,Atlantique,Allada,Mines_Africa_Districts_geocoded,,"0","0","0","0","0","0","337","0","0","0","0","0","0","0","0","0","0","0","0","0","0","0","0","0","0","0","0"
"351",7.01182455,2.59830390828826,BEN,Benin,Plateau,Adja-Ouèrè,Mines_Africa_Districts_geocoded,,"0","0","0","0","0","0","338","0","0","0","0","0","0","0","0","0","0","0","0","0","0","0","0","0","0","0","0"
"352",6.74403185,2.67655074915985,BEN,Benin,Plateau,Sakété,Mines_Africa_Districts_geocoded,,"0","0","0","0","0","0","339","0","0","0","0","0","0","0","0","0","0","0","0","0","0","0","0","0","0","0","0"
"353",6.4305976,1.90006021554636,BEN,Benin,Mono,Comè,Mines_Africa_Districts_geocoded,,"0","0","0","0","0","0","340","0","0","0","0","0","0","0","0","0","0","0","0","0","0","0","0","0","0","0","0"
"354",7.07500005,1.8244247611931,BEN,Benin,Kouffo,Klouékanmè,Mines_Africa_Districts_geocoded,,"0","0","0","0","0","0","341","0","0","0","0","0","0","0","0","0","0","0","0","0","0","0","0","0","0","0","0"
"355",10.8214675,1.07022507866659,BEN,Benin,Atakora,Matéri,Mines_Africa_Districts_geocoded,,"0","0","0","0","0","0","342","0","0","0","0","0","0","0","0","0","0","0","0","0","0","0","0","0","0","0","0"
"356",9.3400159,2.6278258,BEN,Benin,Borgou,Parakou,Mines_Africa_Districts_geocoded,,"0","0","0","0","0","0","343","0","0","0","0","0","0","0","0","0","0","0","0","0","0","0","0","0","0","0","0"
"357",6.53229705,1.74143488167056,BEN,Benin,Mono,Athiémé,Mines_Africa_Districts_geocoded,,"0","0","0","0","0","0","344","0","0","0","0","0","0","0","0","0","0","0","0","0","0","0","0","0","0","0","0"
"358",6.4990718,2.6253361,BEN,Benin,Ouémé,Porto-Novo,Mines_Africa_Districts_geocoded,,"0","0","0","0","0","0","345","0","0","0","0","0","0","0","0","0","0","0","0","0","0","0","0","0","0","0","0"
"359",7.3604193,2.6024222,BEN,Benin,Plateau,Kétou,Mines_Africa_Districts_geocoded,,"0","0","0","0","0","0","346","0","0","0","0","0","0","0","0","0","0","0","0","0","0","0","0","0","0","0","0"
"360",10.25395885,2.75074272008874,BEN,Benin,Borgou,Bembéréké,Mines_Africa_Districts_geocoded,,"0","0","0","0","0","0","347","0","0","0","0","0","0","0","0","0","0","0","0","0","0","0","0","0","0","0","0"
"361",6.51096225,2.3303076367454,BEN,Benin,Atlantique,Abomey-Calavi,Mines_Africa_Districts_geocoded,,"0","0","0","0","0","0","348","0","0","0","0","0","0","0","0","0","0","0","0","0","0","0","0","0","0","0","0"
"362",11.2849785,3.04642088163855,BEN,Benin,Alibori,Kandi,Mines_Africa_Districts_geocoded,,"0","0","0","0","0","0","349","0","0","0","0","0","0","0","0","0","0","0","0","0","0","0","0","0","0","0","0"
"363",10.1832167,1.1000529,BEN,Benin,Atakora,Boukoumbé,Mines_Africa_Districts_geocoded,,"0","0","0","0","0","0","350","0","0","0","0","0","0","0","0","0","0","0","0","0","0","0","0","0","0","0","0"
"364",6.3666147,2.0853599,BEN,Benin,Atlantique,Ouidah,Mines_Africa_Districts_geocoded,,"0","0","0","0","0","0","351","0","0","0","0","0","0","0","0","0","0","0","0","0","0","0","0","0","0","0","0"
"365",6.9093362,1.7130032,BEN,Benin,Mono,Dogbo,Mines_Africa_Districts_geocoded,,"0","0","0","0","0","0","352","0","0","0","0","0","0","0","0","0","0","0","0","0","0","0","0","0","0","0","0"
"366",6.493028,2.69333830529332,BEN,Benin,Ouémé,Adjarra,Mines_Africa_Districts_geocoded,,"0","0","0","0","0","0","353","0","0","0","0","0","0","0","0","0","0","0","0","0","0","0","0","0","0","0","0"
"367",7.985217,2.54175771505726,BEN,Benin,Collines,Savè,Mines_Africa_Districts_geocoded,,"0","0","0","0","0","0","354","0","0","0","0","0","0","0","0","0","0","0","0","0","0","0","0","0","0","0","0"
"368",6.9820238,2.666791,BEN,Benin,Plateau,Pobè,Mines_Africa_Districts_geocoded,,"0","0","0","0","0","0","355","0","0","0","0","0","0","0","0","0","0","0","0","0","0","0","0","0","0","0","0"
"369",6.89096245,2.46671402563992,BEN,Benin,Ouémé,Bonou,Mines_Africa_Districts_geocoded,,"0","0","0","0","0","0","357","0","0","0","0","0","0","0","0","0","0","0","0","0","0","0","0","0","0","0","0"
"370",9.7106683,1.6651614,BEN,Benin,Donga,Djougou,Mines_Africa_Districts_geocoded,,"0","0","0","0","0","0","358","0","0","0","0","0","0","0","0","0","0","0","0","0","0","0","0","0","0","0","0"
"371",7.08236145,2.48359120664276,BEN,Benin,Zou,Ouinhi,Mines_Africa_Districts_geocoded,,"0","0","0","0","0","0","359","0","0","0","0","0","0","0","0","0","0","0","0","0","0","0","0","0","0","0","0"
"372",9.68833355,2.46336069350434,BEN,Benin,Borgou,N'Dali,Mines_Africa_Districts_geocoded,,"0","0","0","0","0","0","360","0","0","0","0","0","0","0","0","0","0","0","0","0","0","0","0","0","0","0","0"
"373",10.4791862,0.936429736261758,BEN,Benin,Atakora,Cobly,Mines_Africa_Districts_geocoded,,"0","0","0","0","0","0","361","0","0","0","0","0","0","0","0","0","0","0","0","0","0","0","0","0","0","0","0"
"374",9.6642475,1.3859323,BEN,Benin,Donga,Ouaké,Mines_Africa_Districts_geocoded,,"0","0","0","0","0","0","362","0","0","0","0","0","0","0","0","0","0","0","0","0","0","0","0","0","0","0","0"
"375",10.3321794,1.6919847,BEN,Benin,Atakora,Kouandé,Mines_Africa_Districts_geocoded,,"0","0","0","0","0","0","363","0","0","0","0","0","0","0","0","0","0","0","0","0","0","0","0","0","0","0","0"
"376",10.97211505,1.99834276840185,BEN,Benin,Atakora,Kérou,Mines_Africa_Districts_geocoded,,"0","0","0","0","0","0","364","0","0","0","0","0","0","0","0","0","0","0","0","0","0","0","0","0","0","0","0"
"377",6.8744445,1.97292169601751,BEN,Benin,Kouffo,Lalo,Mines_Africa_Districts_geocoded,,"0","0","0","0","0","0","365","0","0","0","0","0","0","0","0","0","0","0","0","0","0","0","0","0","0","0","0"
"378",9.8817865,1.54463190116037,BEN,Benin,Donga,Copargo,Mines_Africa_Districts_geocoded,,"0","0","0","0","0","0","367","0","0","0","0","0","0","0","0","0","0","0","0","0","0","0","0","0","0","0","0"
"379",7.1840041,2.08079988320963,BEN,Benin,Zou,Bohicon,Mines_Africa_Districts_geocoded,,"0","0","0","0","0","0","368","0","0","0","0","0","0","0","0","0","0","0","0","0","0","0","0","0","0","0","0"
"380",7.075825,1.9705679,BEN,Benin,Zou,Agbangnizoun,Mines_Africa_Districts_geocoded,,"0","0","0","0","0","0","369","0","0","0","0","0","0","0","0","0","0","0","0","0","0","0","0","0","0","0","0"
"381",7.165446,1.98288036726759,BEN,Benin,Zou,Abomey,Mines_Africa_Districts_geocoded,,"0","0","0","0","0","0","370","0","0","0","0","0","0","0","0","0","0","0","0","0","0","0","0","0","0","0","0"
"382",6.850139,1.69557738262141,BEN,Benin,Kouffo,Djakotomey,Mines_Africa_Districts_geocoded,,"0","0","0","0","0","0","371","0","0","0","0","0","0","0","0","0","0","0","0","0","0","0","0","0","0","0","0"
"383",6.5750718,2.60993680121676,BEN,Benin,Ouémé,Akpro-Missérété,Mines_Africa_Districts_geocoded,,"0","0","0","0","0","0","372","0","0","0","0","0","0","0","0","0","0","0","0","0","0","0","0","0","0","0","0"
"384",12.16408,-1.61641100583458,BFA,Burkina Faso,Kadiogo,Komsilga,Mines_Africa_Districts_geocoded,,"0","0","0","0","0","0","373","0","0","0","0","0","0","0","0","0","0","0","0","0","0","0","0","0","0","0","0"
"385",12.59297055,-1.00913674558921,BFA,Burkina Faso,Oubritenga,Absouya,Mines_Africa_Districts_geocoded,,"0","0","0","0","0","0","374","0","0","0","0","0","0","0","0","0","0","0","0","0","0","0","0","0","0","0","0"
"386",12.3186862,-2.4696282,BFA,Burkina Faso,Sanguié,Reo,Mines_Africa_Districts_geocoded,,"0","0","0","0","0","0","375","0","0","0","0","0","0","0","0","0","0","0","0","0","0","0","0","0","0","0","0"
"387",10.68603185,-4.99218143937985,BFA,Burkina Faso,Léraba,Wolonkoto,Mines_Africa_Districts_geocoded,,"0","0","0","0","0","0","376","0","0","0","0","0","0","0","0","0","0","0","0","0","0","0","0","0","0","0","0"
"388",11.9713029,-3.041276,BFA,Burkina Faso,Balé,Oury,Mines_Africa_Districts_geocoded,,"0","0","0","0","0","0","377","0","0","0","0","0","0","0","0","0","0","0","0","0","0","0","0","0","0","0","0"
"389",13.3128062,-0.5259324,BFA,Burkina Faso,Namentenga,Tougouri,Mines_Africa_Districts_geocoded,,"0","0","0","0","0","0","378","0","0","0","0","0","0","0","0","0","0","0","0","0","0","0","0","0","0","0","0"
"390",11.3040091,-3.8987208,BFA,Burkina Faso,Houet,Lena,Mines_Africa_Districts_geocoded,,"0","0","0","0","0","0","379","0","0","0","0","0","0","0","0","0","0","0","0","0","0","0","0","0","0","0","0"
"391",11.829339,-1.153856,BFA,Burkina Faso,Zoundwéogo,Bere,Mines_Africa_Districts_geocoded,,"0","0","0","0","0","0","380","0","0","0","0","0","0","0","0","0","0","0","0","0","0","0","0","0","0","0","0"
"392",13.2072912,-2.3598879,BFA,Burkina Faso,Zondoma,Gourcy,Mines_Africa_Districts_geocoded,,"0","0","0","0","0","0","381","0","0","0","0","0","0","0","0","0","0","0","0","0","0","0","0","0","0","0","0"
"393",12.8269825,-2.01846644749924,BFA,Burkina Faso,Passoré,Arbolle,Mines_Africa_Districts_geocoded,,"0","0","0","0","0","0","382","0","0","0","0","0","0","0","0","0","0","0","0","0","0","0","0","0","0","0","0"
"394",13.11761025,-3.251487459519,BFA,Burkina Faso,Sourou,Kassoum,Mines_Africa_Districts_geocoded,,"0","0","0","0","0","0","383","0","0","0","0","0","0","0","0","0","0","0","0","0","0","0","0","0","0","0","0"
"395",11.4351674,-4.0375881,BFA,Burkina Faso,Houet,Satiri,Mines_Africa_Districts_geocoded,,"0","0","0","0","0","0","384","0","0","0","0","0","0","0","0","0","0","0","0","0","0","0","0","0","0","0","0"
"396",12.2465618,-0.6278012,BFA,Burkina Faso,Ganzourgou,Zorgho,Mines_Africa_Districts_geocoded,,"0","0","0","0","0","0","385","0","0","0","0","0","0","0","0","0","0","0","0","0","0","0","0","0","0","0","0"
"397",13.6472798,-0.8066866,BFA,Burkina Faso,Sanmatenga,Pensa,Mines_Africa_Districts_geocoded,,"0","0","0","0","0","0","386","0","0","0","0","0","0","0","0","0","0","0","0","0","0","0","0","0","0","0","0"
"398",11.8309453,1.5965126887539,BFA,Burkina Faso,Tapoa,Namounou,Mines_Africa_Districts_geocoded,,"0","0","0","0","0","0","387","0","0","0","0","0","0","0","0","0","0","0","0","0","0","0","0","0","0","0","0"
"399",11.4606938,-0.936902564135393,BFA,Burkina Faso,Zoundwéogo,Gogo,Mines_Africa_Districts_geocoded,,"0","0","0","0","0","0","388","0","0","0","0","0","0","0","0","0","0","0","0","0","0","0","0","0","0","0","0"
"400",11.4408325,-2.96298895888582,BFA,Burkina Faso,Tuy,Koti,Mines_Africa_Districts_geocoded,,"0","0","0","0","0","0","389","0","0","0","0","0","0","0","0","0","0","0","0","0","0","0","0","0","0","0","0"
"401",12.178932,-0.3539332,BFA,Burkina Faso,Kouritenga,Koupela,Mines_Africa_Districts_geocoded,,"0","0","0","0","0","0","390","0","0","0","0","0","0","0","0","0","0","0","0","0","0","0","0","0","0","0","0"
"402",10.9648093,-3.26744406184709,BFA,Burkina Faso,Bougouriba,Diebougou,Mines_Africa_Districts_geocoded,,"0","0","0","0","0","0","392","0","0","0","0","0","0","0","0","0","0","0","0","0","0","0","0","0","0","0","0"
"403",11.35924565,0.402892562443821,BFA,Burkina Faso,Koulpélogo,Soudougui,Mines_Africa_Districts_geocoded,,"0","0","0","0","0","0","395","0","0","0","0","0","0","0","0","0","0","0","0","0","0","0","0","0","0","0","0"
"404",12.54652,-1.76781412882788,BFA,Burkina Faso,Kourwéogo,Laye,Mines_Africa_Districts_geocoded,,"0","0","0","0","0","0","396","0","0","0","0","0","0","0","0","0","0","0","0","0","0","0","0","0","0","0","0"
"405",11.892606,-4.338064,BFA,Burkina Faso,Banwa,Kouka,Mines_Africa_Districts_geocoded,,"0","0","0","0","0","0","399","0","0","0","0","0","0","0","0","0","0","0","0","0","0","0","0","0","0","0","0"
"406",14.7095001,0.0948660664402252,BFA,Burkina Faso,Oudalan,Markoye,Mines_Africa_Districts_geocoded,,"0","0","0","0","0","2","400","0","0","0","0","0","0","0","0","0","2","0","0","0","0","0","0","0","0","0","0"
"407",11.036111,-0.779167,BFA,Burkina Faso,Nahouri,Zio,Mines_Africa_Districts_geocoded,,"0","0","0","0","0","0","401","0","0","0","0","0","0","0","0","0","0","0","0","0","0","0","0","0","0","0","0"
"408",11.9886068,-1.29460195365899,BFA,Burkina Faso,Bazéga,Kombissiri,Mines_Africa_Districts_geocoded,,"0","0","0","0","0","0","402","0","0","0","0","0","0","0","0","0","0","0","0","0","0","0","0","0","0","0","0"
"409",11.72708225,-0.826965653236764,BFA,Burkina Faso,Boulgou,Niaogho,Mines_Africa_Districts_geocoded,,"0","0","0","0","0","0","403","0","0","0","0","0","0","0","0","0","0","0","0","0","0","0","0","0","0","0","0"
"410",11.6287401,-1.17501045891205,BFA,Burkina Faso,Zoundwéogo,Guiba,Mines_Africa_Districts_geocoded,,"0","0","0","0","0","0","404","0","0","0","0","0","0","0","0","0","0","0","0","0","0","0","0","0","0","0","0"
"411",13.163633,-3.39786140338624,BFA,Burkina Faso,Sourou,Di,Mines_Africa_Districts_geocoded,,"0","0","0","0","0","0","405","0","0","0","0","0","0","0","0","0","0","0","0","0","0","0","0","0","0","0","0"
"412",14.0327651,-0.0348286,BFA,Burkina Faso,Séno,Dori,Mines_Africa_Districts_geocoded,,"0","0","0","0","0","0","406","0","0","0","0","0","0","0","0","0","0","0","0","0","0","0","0","0","0","0","0"
"413",12.4158999,-2.69722081239879,BFA,Burkina Faso,Sanguié,Dassa,Mines_Africa_Districts_geocoded,,"0","0","0","0","0","0","407","0","0","0","0","0","0","0","0","0","0","0","0","0","0","0","0","0","0","0","0"
"414",12.01088275,-1.57237164953218,BFA,Burkina Faso,Bazéga,Sapone,Mines_Africa_Districts_geocoded,,"0","0","0","0","0","0","408","0","0","0","0","0","0","0","0","0","0","0","0","0","0","0","0","0","0","0","0"
"415",11.1757783,-4.2957591,BFA,Burkina Faso,Houet,Bobo-Dioulasso,Mines_Africa_Districts_geocoded,,"0","0","1","0","0","1","409","0","0","0","0","0","0","0","0","0","0","0","0","0","0","0","0","0","0","0","0"
"416",12.9763066,-0.1432736,BFA,Burkina Faso,Gnagna,Bogande,Mines_Africa_Districts_geocoded,,"0","0","0","0","0","1","410","0","0","0","0","0","0","0","0","0","0","0","0","0","0","0","0","0","0","0","0"
"417",10.3303342,-3.1795681,BFA,Burkina Faso,Poni,Gaoua,Mines_Africa_Districts_geocoded,,"0","0","0","0","0","0","411","0","0","0","0","0","0","0","0","0","0","0","0","0","0","0","0","0","0","0","0"
"418",10.9474188,-4.4752593,BFA,Burkina Faso,Houet,Peni,Mines_Africa_Districts_geocoded,,"0","0","0","0","0","0","412","0","0","0","0","0","0","0","0","0","0","0","0","0","0","0","0","0","0","0","0"
"419",12.1669049,-0.246908,BFA,Burkina Faso,Kouritenga,Baskoure,Mines_Africa_Districts_geocoded,,"0","0","0","0","0","0","413","0","0","0","0","0","0","0","0","0","0","0","0","0","0","0","0","0","0","0","0"
"420",11.10375615,-0.92468510809755,BFA,Burkina Faso,Nahouri,Tiebele,Mines_Africa_Districts_geocoded,,"0","0","0","0","0","0","414","0","0","0","0","0","0","0","0","0","0","0","0","0","0","0","0","0","0","0","0"
"421",11.93983,-2.53627257654069,BFA,Burkina Faso,Sanguié,Pouni,Mines_Africa_Districts_geocoded,,"0","0","0","0","0","1","415","0","0","0","0","0","0","0","0","0","0","0","1","0","0","0","0","0","0","0","0"
"422",12.3876891,-1.35138758649635,BFA,Burkina Faso,Kadiogo,Saaba,Mines_Africa_Districts_geocoded,,"0","0","0","0","0","0","416","0","0","0","0","0","0","0","0","0","0","0","0","0","0","0","0","0","0","0","0"
"423",11.1069593,-2.89922024182996,BFA,Burkina Faso,Ioba,Koper,Mines_Africa_Districts_geocoded,,"0","0","0","0","0","0","417","0","0","0","0","0","0","0","0","0","0","0","0","0","0","0","0","0","0","0","0"
"424",12.30246345,-1.89998073343374,BFA,Burkina Faso,Boulkiemdé,Bingo,Mines_Africa_Districts_geocoded,,"0","0","0","0","0","0","418","0","0","0","0","0","0","0","0","0","0","0","0","0","0","0","0","0","0","0","0"
"425",12.44385585,-2.07307300248733,BFA,Burkina Faso,Boulkiemdé,Kindi,Mines_Africa_Districts_geocoded,,"0","0","0","0","0","0","420","0","0","0","0","0","0","0","0","0","0","0","0","0","0","0","0","0","0","0","0"
"426",9.94573745,-4.38913944829554,BFA,Burkina Faso,Komoé,Mangodara,Mines_Africa_Districts_geocoded,,"0","0","0","0","0","0","421","0","0","0","0","0","0","0","0","0","0","0","0","0","0","0","0","0","0","0","0"
"427",12.0013601,-0.2646779,BFA,Burkina Faso,Kouritenga,Tansobentenga,Mines_Africa_Districts_geocoded,,"0","0","0","0","0","0","422","0","0","0","0","0","0","0","0","0","0","0","0","0","0","0","0","0","0","0","0"
"428",13.588066,-0.2653784,BFA,Burkina Faso,Namentenga,Yalgo,Mines_Africa_Districts_geocoded,,"0","0","0","0","0","0","423","0","0","0","0","0","0","0","0","0","0","0","0","0","0","0","0","0","0","0","0"
"429",12.21504,-0.733784,BFA,Burkina Faso,Ganzourgou,Boudry,Mines_Africa_Districts_geocoded,,"0","0","0","0","0","0","424","0","0","0","0","0","0","0","0","0","0","0","0","0","0","0","0","0","0","0","0"
"430",13.085603,-1.0839593,BFA,Burkina Faso,Sanmatenga,Kaya,Mines_Africa_Districts_geocoded,,"0","0","0","0","0","0","425","0","0","0","0","0","0","0","0","0","0","0","0","0","0","0","0","0","0","0","0"
"431",10.2821782,-4.916741,BFA,Burkina Faso,Komoé,Niangoloko,Mines_Africa_Districts_geocoded,,"0","0","0","0","0","0","426","0","0","0","0","0","0","0","0","0","0","0","0","0","0","0","0","0","0","0","0"
"432",11.5017863,-0.325139531411955,BFA,Burkina Faso,Boulgou,Bane,Mines_Africa_Districts_geocoded,,"0","0","0","0","0","0","427","0","0","0","0","0","0","0","0","0","0","0","0","0","0","0","0","0","0","0","0"
"433",11.3996079,-4.4293787,BFA,Burkina Faso,Houet,Bama,Mines_Africa_Districts_geocoded,,"0","0","0","0","0","0","428","0","0","0","0","0","0","0","0","0","0","0","0","0","0","0","0","0","0","0","0"
"434",12.65469,-0.671503,BFA,Burkina Faso,Ganzourgou,Kogo,Mines_Africa_Districts_geocoded,,"0","0","0","0","0","0","429","0","0","0","0","0","0","0","0","0","0","0","0","0","0","0","0","0","0","0","0"
"435",12.89887125,-3.40850164649247,BFA,Burkina Faso,Sourou,Lanfièra,Mines_Africa_Districts_geocoded,,"0","0","0","0","0","0","432","0","0","0","0","0","0","0","0","0","0","0","0","0","0","0","0","0","0","0","0"
"436",12.15,-0.533333,BFA,Burkina Faso,Ganzourgou,Zoungou,Mines_Africa_Districts_geocoded,,"0","0","0","0","0","0","433","0","0","0","0","0","0","0","0","0","0","0","0","0","0","0","0","0","0","0","0"
"437",13.44169,0.5264471,BFA,Burkina Faso,Yagha,Sebba,Mines_Africa_Districts_geocoded,,"0","0","1","0","0","1","434","0","0","0","0","0","0","0","0","0","0","0","0","0","0","0","0","0","0","0","0"
"438",11.2446805,0.711607,BFA,Burkina Faso,Kompienga,Pama,Mines_Africa_Districts_geocoded,,"0","0","0","0","0","0","435","0","0","0","0","0","0","0","0","0","0","0","0","0","0","0","0","0","0","0","0"
"439",13.1663101,-1.9831268,BFA,Burkina Faso,Yatenga,Kalsaka,Mines_Africa_Districts_geocoded,,"0","0","0","0","0","0","436","0","0","0","0","0","0","0","0","0","0","0","0","0","0","0","0","0","0","0","0"
"440",12.2514911,-2.3652267,BFA,Burkina Faso,Boulkiemdé,Koudougou,Mines_Africa_Districts_geocoded,,"0","0","0","0","0","0","437","0","0","0","0","0","0","0","0","0","0","0","0","0","0","0","0","0","0","0","0"
"441",12.03737805,-1.84895431942597,BFA,Burkina Faso,Bazéga,Kayao,Mines_Africa_Districts_geocoded,,"0","0","1","0","0","1","438","0","0","0","0","0","0","0","0","0","0","0","0","0","0","0","0","0","0","0","0"
"442",12.3802387,-1.5015201,BFA,Burkina Faso,Kadiogo,Kadiogo,Mines_Africa_Districts_geocoded,,"0","0","0","0","0","0","441","0","0","0","0","0","0","0","0","0","0","0","0","0","0","0","0","0","0","0","0"
"443",12.5093861,-3.06896652793706,BFA,Burkina Faso,Nayala,Ye,Mines_Africa_Districts_geocoded,,"0","0","0","0","0","0","443","0","0","0","0","0","0","0","0","0","0","0","0","0","0","0","0","0","0","0","0"
"444",12.548531,-0.024969,BFA,Burkina Faso,Gnagna,Bilanga,Mines_Africa_Districts_geocoded,,"0","0","0","0","0","0","444","0","0","0","0","0","0","0","0","0","0","0","0","0","0","0","0","0","0","0","0"
"445",11.0806681,-5.3109525,BFA,Burkina Faso,Kénédougou,Koloko,Mines_Africa_Districts_geocoded,,"0","0","0","0","0","0","445","0","0","0","0","0","0","0","0","0","0","0","0","0","0","0","0","0","0","0","0"
"446",13.6803137,-1.9651052,BFA,Burkina Faso,Loroum,Ouindigui,Mines_Africa_Districts_geocoded,,"0","0","0","0","0","0","446","0","0","0","0","0","0","0","0","0","0","0","0","0","0","0","0","0","0","0","0"
"447",12.0558333,-0.2761111,BFA,Burkina Faso,Kouritenga,Yargo,Mines_Africa_Districts_geocoded,,"0","0","0","0","0","0","447","0","0","0","0","0","0","0","0","0","0","0","0","0","0","0","0","0","0","0","0"
"448",14.58014565,-0.974653138022793,BFA,Burkina Faso,Soum,Koutougou,Mines_Africa_Districts_geocoded,,"0","0","0","0","0","0","449","0","0","0","0","0","0","0","0","0","0","0","0","0","0","0","0","0","0","0","0"
"449",13.4320995,-2.84295813932899,BFA,Burkina Faso,Sourou,Gomboro,Mines_Africa_Districts_geocoded,,"0","0","0","0","0","0","450","0","0","0","0","0","0","0","0","0","0","0","0","0","0","0","0","0","0","0","0"
"450",10.8070133,-3.0015533,BFA,Burkina Faso,Ioba,Zambo,Mines_Africa_Districts_geocoded,,"0","0","0","0","0","0","451","0","0","0","0","0","0","0","0","0","0","0","0","0","0","0","0","0","0","0","0"
"451",10.2987522,-3.529384,BFA,Burkina Faso,Poni,Loropeni,Mines_Africa_Districts_geocoded,,"0","0","0","0","0","0","452","0","0","0","0","0","0","0","0","0","0","0","0","0","0","0","0","0","0","0","0"
"452",11.7828079,-0.3651416,BFA,Burkina Faso,Boulgou,Tenkodogo,Mines_Africa_Districts_geocoded,,"0","0","0","0","0","0","453","0","0","0","0","0","0","0","0","0","0","0","0","0","0","0","0","0","0","0","0"
"453",12.2868497,-0.8380669,BFA,Burkina Faso,Ganzourgou,Mogtedo,Mines_Africa_Districts_geocoded,,"0","0","0","0","0","0","454","0","0","0","0","0","0","0","0","0","0","0","0","0","0","0","0","0","0","0","0"
"454",12.5571989,-1.65076058390134,BFA,Burkina Faso,Kadiogo,Pabre,Mines_Africa_Districts_geocoded,,"0","0","0","0","0","0","455","0","0","0","0","0","0","0","0","0","0","0","0","0","0","0","0","0","0","0","0"
"455",10.91364175,-3.42644028187486,BFA,Burkina Faso,Bougouriba,Dolo,Mines_Africa_Districts_geocoded,,"0","0","0","0","0","0","456","0","0","0","0","0","0","0","0","0","0","0","0","0","0","0","0","0","0","0","0"
"456",13.2022826,-1.5246041,BFA,Burkina Faso,Bam,Sabce,Mines_Africa_Districts_geocoded,,"0","0","0","0","0","0","458","0","0","0","0","0","0","0","0","0","0","0","0","0","0","0","0","0","0","0","0"
"457",12.1196477,0.1838984,BFA,Burkina Faso,Gourma,Diapangou,Mines_Africa_Districts_geocoded,,"0","0","0","0","0","0","459","0","0","0","0","0","0","0","0","0","0","0","0","0","0","0","0","0","0","0","0"
"458",13.7670609,-2.0734607,BFA,Burkina Faso,Loroum,Titao,Mines_Africa_Districts_geocoded,,"0","0","0","0","0","0","460","0","0","0","0","0","0","0","0","0","0","0","0","0","0","0","0","0","0","0","0"
"459",11.5996782,1.62155053137816,BFA,Burkina Faso,Tapoa,Logobou,Mines_Africa_Districts_geocoded,,"0","0","0","0","0","0","461","0","0","0","0","0","0","0","0","0","0","0","0","0","0","0","0","0","0","0","0"
"460",12.5337651,-1.38496406388819,BFA,Burkina Faso,Oubritenga,Loumbila,Mines_Africa_Districts_geocoded,,"0","0","0","0","0","0","462","0","0","0","0","0","0","0","0","0","0","0","0","0","0","0","0","0","0","0","0"
"461",10.966667,-4.816667,BFA,Burkina Faso,Kénédougou,Kourinion,Mines_Africa_Districts_geocoded,,"0","0","0","0","0","0","463","0","0","0","0","0","0","0","0","0","0","0","0","0","0","0","0","0","0","0","0"
"462",10.4861648,-4.17787698560005,BFA,Burkina Faso,Komoé,Sidéradougou,Mines_Africa_Districts_geocoded,,"0","0","0","0","0","0","464","0","0","0","0","0","0","0","0","0","0","0","0","0","0","0","0","0","0","0","0"
"463",12.3665362,0.463996510833171,BFA,Burkina Faso,Gourma,Yamba,Mines_Africa_Districts_geocoded,,"0","0","0","0","0","0","465","0","0","0","0","0","0","0","0","0","0","0","0","0","0","0","0","0","0","0","0"
"464",14.0828654,-2.4446739,BFA,Burkina Faso,Loroum,Banh,Mines_Africa_Districts_geocoded,,"0","0","0","0","0","0","466","0","0","0","0","0","0","0","0","0","0","0","0","0","0","0","0","0","0","0","0"
"465",12.78287165,-1.70948244060688,BFA,Burkina Faso,Kourwéogo,Toeghin,Mines_Africa_Districts_geocoded,,"0","0","0","0","0","0","467","0","0","0","0","0","0","0","0","0","0","0","0","0","0","0","0","0","0","0","0"
"466",11.86040115,-0.730939563917051,BFA,Burkina Faso,Boulgou,Komtoega,Mines_Africa_Districts_geocoded,,"0","0","0","0","0","0","468","0","0","0","0","0","0","0","0","0","0","0","0","0","0","0","0","0","0","0","0"
"467",11.9303429,1.6305717,BFA,Burkina Faso,Tapoa,Partiaga,Mines_Africa_Districts_geocoded,,"0","0","0","0","0","0","470","0","0","0","0","0","0","0","0","0","0","0","0","0","0","0","0","0","0","0","0"
"468",12.32237,-1.73514676171335,BFA,Burkina Faso,Kadiogo,Tanghin-Dassouri,Mines_Africa_Districts_geocoded,,"0","0","1","0","0","1","472","0","0","0","0","0","0","0","0","0","0","0","0","0","0","0","0","0","0","0","0"
"469",12.62985495,-2.14429046674359,BFA,Burkina Faso,Boulkiemdé,Nanoro,Mines_Africa_Districts_geocoded,,"0","0","0","0","0","0","473","0","0","0","0","0","0","0","0","0","0","0","0","0","0","0","0","0","0","0","0"
"470",12.0639592,-2.4097790498262,BFA,Burkina Faso,Boulkiemdé,Sourgou,Mines_Africa_Districts_geocoded,,"0","0","0","0","0","0","474","0","0","0","0","0","0","0","0","0","0","0","0","0","0","0","0","0","0","0","0"
"471",12.555786,-2.38855045690709,BFA,Burkina Faso,Sanguié,Kordie,Mines_Africa_Districts_geocoded,,"0","0","0","0","0","0","475","0","0","0","0","0","0","0","0","0","0","0","0","0","0","0","0","0","0","0","0"
"472",14.028966,-0.45131331108612,BFA,Burkina Faso,Séno,Gorgadji,Mines_Africa_Districts_geocoded,,"0","0","0","0","0","0","476","0","0","0","0","0","0","0","0","0","0","0","0","0","0","0","0","0","0","0","0"
"473",11.9862431,-1.4590003,BFA,Burkina Faso,Bazéga,Doulougou,Mines_Africa_Districts_geocoded,,"0","0","0","0","0","0","477","0","0","0","0","0","0","0","0","0","0","0","0","0","0","0","0","0","0","0","0"
"474",11.4512467,0.219452688940658,BFA,Burkina Faso,Koulpélogo,Yonde,Mines_Africa_Districts_geocoded,,"0","0","0","0","0","0","478","0","0","0","0","0","0","0","0","0","0","0","0","0","0","0","0","0","0","0","0"
"475",12.324167,-0.309167,BFA,Burkina Faso,Kouritenga,Andemtenga,Mines_Africa_Districts_geocoded,,"0","0","0","0","0","0","479","0","0","0","0","0","0","0","0","0","0","0","0","0","0","0","0","0","0","0","0"
"476",12.9097145,-1.0782422,BFA,Burkina Faso,Sanmatenga,Boussouma,Mines_Africa_Districts_geocoded,,"0","0","0","0","0","0","480","0","0","0","0","0","0","0","0","0","0","0","0","0","0","0","0","0","0","0","0"
"477",11.6261117,-3.6869364,BFA,Burkina Faso,Tuy,Bereba,Mines_Africa_Districts_geocoded,,"0","0","0","0","0","0","481","0","0","0","0","0","0","0","0","0","0","0","0","0","0","0","0","0","0","0","0"
"478",13.3224919,-1.5263393,BFA,Burkina Faso,Bam,Kongoussi,Mines_Africa_Districts_geocoded,,"0","0","0","0","0","0","482","0","0","0","0","0","0","0","0","0","0","0","0","0","0","0","0","0","0","0","0"
"479",11.166667,-4.916667,BFA,Burkina Faso,Kénédougou,Djigouera,Mines_Africa_Districts_geocoded,,"0","0","0","0","0","0","483","0","0","0","0","0","0","0","0","0","0","0","0","0","0","0","0","0","0","0","0"
"480",11.9008749,-5.0189428,BFA,Burkina Faso,Kénédougou,Morolaba,Mines_Africa_Districts_geocoded,,"0","0","0","0","0","0","485","0","0","0","0","0","0","0","0","0","0","0","0","0","0","0","0","0","0","0","0"
"481",13.90818,-1.72041368543763,BFA,Burkina Faso,Soum,Pobe-Mengao,Mines_Africa_Districts_geocoded,,"0","0","0","0","0","0","486","0","0","0","0","0","0","0","0","0","0","0","0","0","0","0","0","0","0","0","0"
"482",11.7447567,-2.9300274,BFA,Burkina Faso,Balé,Boromo,Mines_Africa_Districts_geocoded,,"0","0","0","0","0","0","487","0","0","0","0","0","0","0","0","0","0","0","0","0","0","0","0","0","0","0","0"
"483",12.1934191,-1.8752254,BFA,Burkina Faso,Boulkiemdé,Kokologho,Mines_Africa_Districts_geocoded,,"0","0","0","0","0","0","490","0","0","0","0","0","0","0","0","0","0","0","0","0","0","0","0","0","0","0","0"
"484",11.74731865,1.35405003988387,BFA,Burkina Faso,Tapoa,Tambaga,Mines_Africa_Districts_geocoded,,"0","0","0","0","0","0","492","0","0","0","0","0","0","0","0","0","0","0","0","0","0","0","0","0","0","0","0"
"485",11.82415245,-3.50109371686163,BFA,Burkina Faso,Balé,Yaho,Mines_Africa_Districts_geocoded,,"0","0","0","0","0","0","493","0","0","0","0","0","0","0","0","0","0","0","0","0","0","0","0","0","0","0","0"
"486",13.5119342,-1.2874202,BFA,Burkina Faso,Sanmatenga,Namissiguima,Mines_Africa_Districts_geocoded,,"0","0","0","0","0","0","494","0","0","0","0","0","0","0","0","0","0","0","0","0","0","0","0","0","0","0","0"
"487",11.127761,-2.669963947904,BFA,Burkina Faso,Ioba,Niego,Mines_Africa_Districts_geocoded,,"0","0","0","0","0","0","495","0","0","0","0","0","0","0","0","0","0","0","0","0","0","0","0","0","0","0","0"
"488",11.2470714,-0.299902,BFA,Burkina Faso,Boulgou,Bittou,Mines_Africa_Districts_geocoded,,"0","0","0","0","0","0","496","0","0","0","0","0","0","0","0","0","0","0","0","0","0","0","0","0","0","0","0"
"489",12.7495052,-1.24792836435482,BFA,Burkina Faso,Oubritenga,Zitenga,Mines_Africa_Districts_geocoded,,"0","0","0","0","0","0","497","0","0","0","0","0","0","0","0","0","0","0","0","0","0","0","0","0","0","0","0"
"490",11.85,-4.0666667,BFA,Burkina Faso,Houet,Badema,Mines_Africa_Districts_geocoded,,"0","0","0","0","0","0","498","0","0","0","0","0","0","0","0","0","0","0","0","0","0","0","0","0","0","0","0"
"491",12.8119603,-2.88481315057987,BFA,Burkina Faso,Nayala,Yaba,Mines_Africa_Districts_geocoded,,"0","0","0","0","0","0","499","0","0","0","0","0","0","0","0","0","0","0","0","0","0","0","0","0","0","0","0"
"492",12.8256574,-1.0663565,BFA,Burkina Faso,Sanmatenga,Korsimoro,Mines_Africa_Districts_geocoded,,"0","0","0","0","0","0","500","0","0","0","0","0","0","0","0","0","0","0","0","0","0","0","0","0","0","0","0"
"493",11.8024782,-0.748777932377351,BFA,Burkina Faso,Boulgou,Beguedo,Mines_Africa_Districts_geocoded,,"0","0","0","0","0","0","501","0","0","0","0","0","0","0","0","0","0","0","0","0","0","0","0","0","0","0","0"
"494",11.77905045,-1.34455417802784,BFA,Burkina Faso,Bazéga,Toece,Mines_Africa_Districts_geocoded,,"0","0","0","0","0","0","502","0","0","0","0","0","0","0","0","0","0","0","0","0","0","0","0","0","0","0","0"
"495",11.0443586,-2.7888128,BFA,Burkina Faso,Ioba,Ouessa,Mines_Africa_Districts_geocoded,,"0","0","0","0","0","0","503","0","0","0","0","0","0","0","0","0","0","0","0","0","0","0","0","0","0","0","0"
"496",12.9612908,-2.2634317,BFA,Burkina Faso,Passoré,Yako,Mines_Africa_Districts_geocoded,,"0","0","0","0","0","0","504","0","0","0","0","0","0","0","0","0","0","0","0","0","0","0","0","0","0","0","0"
"497",10.77771985,-5.2775357641014,BFA,Burkina Faso,Léraba,Kankalaba,Mines_Africa_Districts_geocoded,,"0","0","0","0","0","0","505","0","0","0","0","0","0","0","0","0","0","0","0","0","0","0","0","0","0","0","0"
"498",10.1431413,-3.4571299,BFA,Burkina Faso,Poni,Kampti,Mines_Africa_Districts_geocoded,,"0","0","0","0","0","0","506","0","0","0","0","0","0","0","0","0","0","0","0","0","0","0","0","0","0","0","0"
